,fire_name,fire_size,fire_cause,latitude,longitude,state,discovery_month,putout_time,Vegetation,Temp_pre_30,Wind_pre_30,Hum_pre_30,Prec_pre_30,remoteness,year
3,WNA  1,1.0,Debris Burning,39.6414,-119.3083,NV,Jun,0,0,16.27596717,4.054982415,44.77842907,10.4,0.4874474548506364,2005
9,CRAZY,1.0,Other,48.8394,-99.7185,ND,Apr,0,15,4.600950119,6.380760095,64.60650888,12.3,0.2916826266795891,2004
26,STO3573155,2.0,Debris Burning,35.7189,-92.335,AR,Jan,0,15,3.490697674,1.34744186,76.09139785,0.0,0.2272697343448786,2014
31,AXE RONDEAU,1.2,Debris Burning,48.833,-99.7836,ND,Apr,0,15,-0.8916349809999999,5.800666667000001,77.57501206,21.2,0.2923027163909939,2007
35,FY2001-EARLY-021,30.18,Debris Burning,31.259,-84.8956,GA,Oct,0,12,20.07947977,3.65984,67.55178268,0.0,0.1624159398172477,2000
36,LUCKY,1420.0,Lightning,33.2418,-104.9122,NM,Jul,1,16,31.05585937,4.026367187,28.78320313,2.5,0.3479907070469388,1994
48,LAUREL BRANCH,55.0,Debris Burning,37.46458863,-81.49122444,WV,Apr,0,0,8.9048,4.18489426,56.23867069,54.5,0.127991882782634,2014
54,AGERT,3.2,Utilities,43.85158,-108.19147,WY,Jul,0,9,22.72938005,3.148513514,37.25675676,3.1,0.3746517113312526,2010
56,LED BETTER BARN,15.3,Utilities,36.5865,-96.32322,OK,Dec,1,0,8.523263157999999,3.278095238,76.61521739,150.8,0.2639427624719013,2015
57,CALDERWOOD,270.0,Arson,35.47333333,-84.45,TN,Oct,1,15,14.40471888,1.976602238,73.77567887,145.8,0.1555431553430117,1999
59,DEVIL'S,57.0,Arson,36.81666667,-82.65166667,VA,Apr,2,0,8.864242424,3.135151515,52.83489097,0.0,0.1386698681295559,1995
64,SPRING GULCH,1.5,Lightning,39.205,-105.18833329999998,CO,Jul,1,0,0.0,0.0,0.0,0.0,0.347202748581888,1996
78,RAMP,450.0,Utilities,34.33,-117.5130556,CA,Jul,1,16,27.85048276,2.58,44.7062069,0.0,0.47215020307743,2006
83,TELEPHONE CANYON,18.0,Other,41.51085,-109.50637,WY,Jun,3,15,13.19906542,5.271161549,33.59279039,1.8,0.3884084306904412,2012
84,LIL CARIBO,108.0,Lightning,63.8517,-150.3543,AK,Jul,26,0,0.0,0.0,0.0,0.0,0.8197266531954936,1997
86,FY2014-TOOMBS-030,13.65,Debris Burning,32.28853889,-82.40083333,GA,Mar,0,12,10.97154851,2.438199627,70.45740836,0.0,0.1393298173350989,2014
89,SWEETBAY 1,1.0,Other,25.334719,-80.80555600000001,FL,Apr,0,12,21.40113154,5.189533239,70.96676301,0.0,0.131003293445296,1992
91,RL278,20.0,Other,47.8666,-94.9169,MN,Apr,0,15,-0.139007092,4.160795455,61.94460227,21.0,0.2465745578827336,2000
95,FY2015-LAURENS-107,4.0,Debris Burning,32.25136667,-82.91357222,GA,Jan,0,12,8.147935035,1.737633411,60.78588808,0.0,0.1439278422115411,2015
97,FY2011-HARRIS-024,9.94,Debris Burning,32.78947346,-84.84721729,GA,Feb,0,12,9.430668127,2.727601314,68.88056206,96.5,0.1608674518866872,2011
98,HAMMER CREEK,26.0,Accidental,45.76867435,-116.3321016,ID,Aug,0,15,21.5948324,0.564106145,58.11033520000001,0.0,0.4550891494307116,2012
111,FY2001-DADE-041,3.4,Arson,34.9102,-85.4287,GA,Mar,0,16,9.76573499,3.2640625,66.86682243,305.5,0.1646940623147792,2001
114,WABANA POWERLINE,2.0,Utilities,47.41333333,-94.49,MN,Mar,0,15,-2.428571429,3.833282675,74.28658537,0.0,0.2426723339716054,1998
115,FY2012-COWETA-020,5.2,Other,33.42630321,-84.92522609999999,GA,Apr,0,16,0.0,0.0,0.0,0.0,0.1611297655602113,2012
119,EIGHT MILE,2.0,Accidental,37.1575,-107.0202778,CO,Sep,3,0,8.664914586,4.722141918999999,40.75965379,0.0,0.3660826818678131,2008
121,OLD ELK,1.0,Other,45.5639,-107.4868,MT,Oct,0,15,14.04709141,2.866445183,57.01502504,23.0,0.36726205791625,1995
123,BALL,3.0,Lightning,36.0602,-118.0965,CA,Jul,2,0,33.90123457,4.684710744,0.0,0.0,0.4769991839981995,2003
124,WHITFIELD RD.,1.0,Arson,34.8839,-98.2039,OK,Aug,0,16,33.97345013,3.947843666,37.33962264,0.8,0.2826857602442385,2011
130,NICHOLS,78.0,Arson,36.78186,-96.004014,OK,Dec,0,0,0.269237833,2.04214876,77.41107185,18.9,0.260836229987279,2013
131,MULTIPLE,3.0,Arson,33.2892,-110.4575,AZ,May,0,16,24.38005502,4.2039889960000005,16.61019284,1.1,0.4022346600857496,2006
133,FY2000-STEWART-045,1.23,Other,32.0988,-84.7623,GA,Mar,0,12,14.88989784,2.976027397,66.19035847,114.7,0.1605963665451146,2000
139,LASILOO,1.0,Accidental,35.0623,-108.8434,NM,May,0,15,0.0,0.0,0.0,0.0,0.3851686196017032,1997
142,LAKERIDGE1,1.0,Lightning,33.9848,-110.0857,AZ,Jul,0,16,26.63636364,4.91010101,19.66161616,2.0,0.3980950892780281,1997
146,AGARD,1.0,Debris Burning,46.1144,-100.6923,ND,Apr,0,9,-1.333333333,3.925558659,76.08645533,2.6,0.301474802346217,2001
154,LINDEN - 411,1.0,Other,33.58500167,-95.08555556,TX,Aug,0,16,32.62925012,1.862785282,46.36376339,0.0,0.2542088211236235,2011
157,BUCK LAKE,9.1,Accidental,29.1325,-81.62,FL,May,0,12,23.9530451,2.731174278,72.50804829,0.0,0.1348264311774838,2015
165,HOLZERS,17.9,Accidental,48.0443,-118.3853,WA,May,0,15,12.35106383,2.196153846,57.91025641,25.1,0.4754027581898195,2001
173,WLDFR-BOYE,40.0,Utilities,41.533,-96.0333,NE,Aug,0,15,0.0,0.0,0.0,0.0,0.2588358689611001,2002
187,FRIEBORN,1.5,Lightning,33.7319444,-109.026667,NM,Jul,3,16,24.02811671,3.772413793,28.45949535,0.8,0.3878281738083908,2010
192,LONESOME,1.0,Lightning,40.22861111,-120.6713889,CA,Jun,1,14,11.74899058,1.548317631,61.60083682,2.5,0.5011084791821621,2006
193,FY2014-BLECKLEY-006,10.0,Arson,32.51734167,-83.2437,GA,Dec,0,12,11.56821378,2.082512893,70.15806662,0.0,0.1466857763978688,2013
199,CROOKED RD,2.0,Debris Burning,42.9758,-108.9493,WY,Mar,0,4,-4.752636719,2.566113281,58.96285435,31.5,0.3823820474380426,2006
219,FY2012-FULTON SOUTH-002,6.0,Other,33.55983163,-84.47725968,GA,Nov,0,16,14.91270023,2.241990847,70.96440873,34.8,0.1570137205854405,2011
220,FY2015-TREUTLEN-022,0.8,Debris Burning,32.45075,-82.61933333,GA,Dec,0,12,11.23170732,1.898634146,71.51806491,0.0,0.141160670333434,2014
222,8.52014E+12,5.0,Accidental,31.55336502,-90.38181672,MS,Nov,0,12,11.3474026,2.223886827,66.80668127,0.0,0.2120601734587761,2014
225,LEYBA,1.0,Other,35.5773,-106.3884,NM,Jan,0,15,-1.181147541,4.26147541,51.14285714,0.0,0.3608299295520969,1996
227,INDIAN CREEK,46.4,Arson,37.73305556,-91.075,MO,Mar,0,0,4.907527881,3.316968852,64.06889952,46.2,0.2145037092842483,2012
230,BURLINGTON ROAD (39),1.0,Arson,30.3595,-84.8169,FL,Jun,0,12,26.41514523,2.52195122,72.25556734,220.2,0.1624007292139953,2015
232,WEST HUNGRYLAND (43),76.0,Lightning,27.0042,-80.3196,FL,Jul,0,12,25.88221884,2.158599696,79.37366003,0.0,0.1251510307054246,2015
236,GREEN MOUNTAIN,510.0,Lightning,47.95055556,-115.6347222,MT,Aug,18,15,25.93277311,2.486324786,0.0,0.0,0.4476025693539021,2000
237,LUCKY2,30.0,Utilities,34.197,-103.532,NM,Mar,0,16,11.2238806,5.811940299,28.17910448,0.0,0.3340096913726771,2011
241,1448 LIBERTY CHURCH RD.,1.0,Debris Burning,36.0107,-80.650283,NC,Jan,0,0,5.867725919,1.526017875,78.76666667,39.7,0.1213598340723935,2015
261,BANNING LANE,5.0,Arson,35.34527778,-82.63527778,NC,May,1,15,16.81509795,1.394457716,66.23065550000001,0.0,0.1393861218551078,2006
262,YATSATTIE,15.0,Debris Burning,34.8834,-109.034,NM,Mar,0,16,0.0,0.0,0.0,0.0,0.3871542684643707,1996
266,MARSHMELLO,3.0,Accidental,43.255,-100.8376,SD,May,0,9,8.912280702,6.020350877,61.40078844,68.1,0.3036802720230633,2002
269,212DAYSCHL,168.3,Other,45.0917,-100.4587,SD,Apr,0,9,4.304545455,5.13030303,59.93181818,0.0,0.2995062100566414,1992
274,VALLEY 2,1.3,Other,33.50411,-116.3795,CA,Oct,5,16,18.60167785,1.93557047,58.16484848,0.0,0.4612355740522211,2013
286,LONG  CYN.,5.2,Lightning,33.7556,-109.6509,AZ,Jun,3,16,16.59636872,4.586219739,35.27061015,0.0,0.3939582478635892,2005
290,BLUEBELLSP,3.0,Lightning,39.4555,-109.9757,UT,Aug,0,0,26.37894737,2.076842105,41.35789474,0.0,0.3939250170951713,1996
291,COWHOUSE ISLAND 1,29.0,Arson,31.0201,-82.23888889,GA,Apr,16,12,0.0,0.0,0.0,0.0,0.1388270409937599,2006
297,ELIZABETH STREET,1.0,Lightning,39.28266823,-80.58605765,WV,Apr,0,0,10.8684435,3.11684435,43.23409669,0.0,0.1190527112701793,1995
308,FREEWAY 2,8.0,Other,39.951177,-122.200397,CA,May,0,0,18.33741393,3.448578017,47.31500393,0.0,0.5169308264175019,2014
312,WENDY,3.0,Other,35.92829376,-119.3128859,CA,Jun,0,15,21.85877318,2.695577746,37.90442225,0.0,0.4894498767334381,1999
313,CREW CAB,1.0,Utilities,46.1525,-100.6915,ND,May,0,9,8.762987737000001,5.76477146,54.86241611,51.8,0.3014581870491482,2005
318,ELK TRACE,9.0,Accidental,37.7073881,-81.73046153,WV,May,0,0,13.88100559,3.958108108,54.1463964,53.2,0.1299865007721712,2014
319,FY2002-FLOYD-087,9.77,Debris Burning,34.4816,-85.1115,GA,Apr,0,16,0.0,0.0,0.0,0.0,0.1621090790503823,2002
323,FIGHTER,4.5,Arson,48.8525,-99.685,ND,Oct,0,15,12.73972868,4.985645005,68.63189569,29.5,0.291362207306082,2006
338,HONDO,2.0,Lightning,35.6845,-106.5517,NM,Jul,1,15,20.5,4.866666667,37.66666667,0.0,0.3623568554325755,2001
344,LEFT HAND,2.0,Lightning,33.77555556,-108.8855556,NM,Nov,0,16,9.757039187,3.025726744,41.74563953,15.2,0.3864116504135366,2013
357,UPS FIRE,1.0,Debris Burning,35.6995,-80.25333333,NC,Apr,0,15,12.57722008,1.3764478759999998,58.98604911,0.0,0.1180362007557749,2010
361,FY2016-HOUSTON-003,4.89,Debris Burning,32.37227778,-83.84344444,GA,Aug,0,12,27.90471254,2.425754717,72.58578680000001,19.3,0.1521547062121024,2015
368,1603 17 MILE FIRE,4.2,Debris Burning,42.9808,-108.4483,WY,Apr,0,4,8.291103604,4.492298981,38.23216308,17.4,0.3774589159374497,2012
377,SENECA FIRE,2.2,Debris Burning,38.86861111,-79.36194444,WV,Apr,2,0,7.713532513,1.335383714,61.81389870000001,0.0,0.1084531228262617,2009
382,SHEEP PASTURE ROAD FIRE,2.0,Debris Burning,35.12,-77.83833333,NC,Apr,0,15,15.527390900000002,1.801021356,58.45755473,0.0,0.0971625642740896,2010
384,TOWN HILL,1.0,Debris Burning,37.10551834,-82.8234024,KY,Dec,0,0,3.244621141,3.205004677,68.46410442,0.0,0.1400410206112583,2013
385,9N CORN,470.0,Utilities,42.2017,-96.5558,NE,Mar,0,9,2.12681669,3.797515237,78.82154341,5.6,0.2634855151153379,2010
389,FY2014-WALKER-051,8.71,Accidental,34.67888889,-85.30972222,GA,Apr,0,16,10.11024436,2.187511826,69.61987041,238.0,0.1637680142564319,2014
396,SHAWN,4.9,Debris Burning,48.8655,-99.8528,ND,Apr,0,15,5.941639648,5.103942486,58.85946197,47.3,0.2929564751840856,2010
401,SQUAWCREEK,32.4,Lightning,41.2352,-116.7362,NV,Jul,1,15,29.24183007,4.374,17.06,0.0,0.4606533913802617,2001
407,10316,15.0,Lightning,34.41000001,-95.91016668,OK,Jun,0,16,24.66878669,2.154397233,72.68441273,0.0,0.2613862463907999,2009
419,ROLLF,1.0,Arson,39.936181,-122.09345,CA,Aug,0,0,0.0,0.0,0.0,0.0,0.5158369078627127,2004
421,FLAT TOP,1.0,Arson,35.7239,-94.5942,OK,Nov,0,15,9.762695776,2.62586616,62.41984334,0.0,0.2482595837950465,2008
424,GABLE FIRE,656.0,Utilities,34.8,-102.24,TX,Jul,0,16,28.4452182,5.2136026,33.30536131,0.0,0.3211932712657261,2011
439,COON CREEK FIRE,15.0,Debris Burning,37.10174179,-83.29543304,KY,Apr,1,0,4.742282507,2.078890456,67.29130435,0.0,0.1442580853792219,2013
441,OAK,3.0,Utilities,38.886764,-123.16392,CA,Oct,0,0,18.11330749,1.3751937980000002,52.75398936,0.3,0.5273652849121566,2009
445,ADA STROUD RD FIRE,1.0,Accidental,35.36848333,-77.94196666,NC,Mar,0,15,9.370060923,2.980765883,58.5671406,57.2,0.0979164033188904,2010
455,SWEENEY,10.0,Accidental,37.21778,-87.73299,KY,Mar,1,0,12.10450231,0.0,0.0,0.0,0.1841991915309835,2012
462,WARD ROAD,1.5,Other,46.38,-120.337,WA,Jun,0,9,18.53682353,3.280196802,45.55842558,6.4,0.4956296560361821,2007
464,96,1.0,Arson,47.9783,-99.0225,ND,Apr,0,15,-1.37564645,5.796229972000001,72.39124227,21.2,0.2852066737854397,2007
470,CADE,1.0,Debris Burning,41.81416667,-123.35833329999998,CA,Jun,0,15,13.49457672,3.1058201060000004,63.75629139,26.3,0.5280936571717687,2005
474,SHEEP,0.6,Lightning,34.33805556,-117.7088889,CA,Jul,1,16,21.0,2.6,78.0,0.0,0.4741295275066108,2011
482,THUMB,1.0,Lightning,35.06555556,-112.0052778,AZ,May,0,15,15.34555556,3.801111111,41.35555556,5.6,0.416416398838074,2001
486,HOPE RD FIRE,3.8,Lightning,34.383334999999995,-80.966667,SC,Jul,0,16,27.95972696,2.3621843,53.00204778,0.0,0.1251640706558876,2011
489,FY2011-UPSON-070,2.45,Debris Burning,32.84417763,-84.40365152,GA,Apr,0,12,13.30962343,2.6820548580000003,70.14821029,0.0,0.1568441449371005,2011
494,ZURFLUH GRASS FIRE,1.68,Debris Burning,44.69583,-122.72389,OR,Aug,0,15,21.10714286,3.774524362,61.83519034,1.6,0.5205759301880752,2014
501,FY2011-GLYNN-044,2.2,Lightning,31.27108084,-81.46903512,GA,Jun,1,12,24.90509584,2.589060309,68.29145978,0.0,0.1317947260004877,2011
504,FY2012-STEPHENS-013,0.75,Debris Burning,34.51570968,-83.35523917,GA,Apr,0,16,16.14093649,2.099026426,50.18830084,0.0,0.1463328540476784,2012
508,MM 141,1.0,Other,40.62478,-118.22181,NV,Jul,1,15,27.44635083,3.445725389,24.44836601,1.3,0.4759560222942425,2014
509,SURVEY,1.0,Other,44.29277778,-111.2758333,ID,Sep,1,15,9.785046729,2.728037383,63.86666667,47.8,0.4049254722154451,2000
525,DOOLEN'S RIDGE,29.0,Arson,35.0192,-96.6255,OK,Mar,1,15,6.8777985070000005,4.228311567,63.62540021,0.0,0.2677170736744372,2013
528,109,5.0,Debris Burning,38.79,-95.83,KS,Apr,0,0,10.92540894,4.169162996,62.8314978,27.1,0.2581467864755162,2015
531,BROKEN AXLE FIRE,42.0,Other,34.98655,-77.31756667,NC,Jun,0,16,23.45011601,2.778077102,69.38316244,8.7,0.0926948831327971,2011
538,RL007,1.0,Arson,47.8686,-95.0864,MN,Mar,0,15,-10.63913914,3.675975976,59.66740331,0.5,0.2481583090307548,2003
542,JOHN VANN,3.0,Arson,35.7242,-94.5592,OK,Nov,0,15,10.85252809,2.055383895,59.37794486,0.0,0.2479328220372507,2012
545,FY2015-BALDWIN-004,1.0,Debris Burning,33.03691667,-83.31219444,GA,Oct,0,16,18.69928532,0.483672347,71.56412478,0.0,0.1469335683955166,2014
547,VOLT CIRCLE,3.0,Utilities,35.74901666,-81.03288333,NC,Mar,0,15,2.149489322,2.412598791,61.35783563,14.2,0.124901880720901,2010
552,RIVER,5.0,Debris Burning,26.49373,-98.8915,TX,Aug,0,12,30.06204188,5.389267016,66.56749672,10.1,0.2956911557622441,2003
564,CEDAR GAP,33.0,Arson,36.27722222,-82.135,TN,Sep,5,0,21.63078849,1.235043805,71.8972973,37.7,0.1343757004848391,2005
566,LIVINGSTON - 226,10.0,Debris Burning,31.18938333,-95.61306667,TX,Apr,0,12,18.61419897,3.267211583,63.13804714,0.0,0.260857665858909,2011
589,OTA 14,12.1,Utilities,43.14277,-116.07345,ID,Jun,0,9,17.10993377,5.708609272,39.11419069,4.9,0.4532531997988818,2013
597,NAVAJO 1,1.0,Other,35.25564,-109.02519,NM,May,0,15,9.318459658,4.344132029,40.37897311,12.4,0.3868363367582998,2009
599,44,30.0,Debris Burning,39.15,-95.1,KS,Mar,0,0,-2.414776632,4.013793103,66.87022016,7.9,0.2511378725309803,2015
603,SECO,5.0,Other,36.23638889,-121.4586111,CA,Oct,0,0,24.94158879,1.849065421,34.82242991,0.0,0.511221204060621,1995
604,CROCKER 2,4.0,Other,35.4125,-119.7908,CA,Jun,0,15,23.23921114,3.0127634660000004,42.58196721,9.8,0.4946349756139305,2011
608,BAR,15.0,Lightning,39.49527778,-121.12583329999998,CA,May,3,0,14.80959302,1.988275194,38.63655137,0.0,0.5060989563401526,2013
614,CAL-PAC 17,4.0,Arson,41.0332,-123.6512,CA,Oct,0,15,12.81408451,2.936384977,79.90661831,130.9,0.5314339526666767,1998
621,5.92014E+12,2.0,Debris Burning,30.6826327,-88.57432712,MS,Oct,0,12,18.72245763,1.300849618,80.59679144,22.3,0.1961768044766867,2014
624,RL385,1.0,Other,47.9733,-95.2519,MN,Apr,0,15,1.470422535,4.63177305,74.67563025,0.0,0.2496878398688602,2000
625,FY2014-LAMAR-007,4.0,Arson,33.12555833,-84.19145,GA,Dec,0,16,10.76753976,1.865622077,37.14285714,0.0,0.1547448596559975,2013
626,1019,1.0,Other,39.29333,-88.368889,IL,Mar,0,0,3.896393762,4.316374269,79.58115778,18.6,0.1889289423543185,2010
627,DAILY,2.0,Lightning,47.25583,-107.15017,MT,May,0,15,11.24903581,4.035972222,62.0,43.7,0.3635890012615688,2014
630,LIMPY,0.8,Accidental,45.5275,-106.9812,MT,Mar,0,15,0.8973611109999999,2.961929825,61.27768014,0.5,0.3623306078746455,1995
632,CARVER CEMETERY,6.0,Accidental,38.4443,-83.2043,KY,Mar,0,0,2.476367006,1.61387422,66.53265766,200.2,0.1427360370627437,2015
633,WILLOW CREEK,1600.0,Lightning,46.6617,-108.5317,MT,Jul,0,15,25.58618331,3.46128591,38.36525308,11.8,0.3772416246178178,2006
636,FOURMILE,18.0,Lightning,41.6908,-116.4258,NV,Aug,1,15,24.23876765,2.84801027,29.6084724,16.1,0.4573374505922234,2012
640,WILSON,160.0,Debris Burning,47.34027778,-114.74666670000002,MT,May,19,15,12.94936709,2.9139240510000004,0.0,0.0,0.4387897863003969,2001
641,MILE MARKER FIVE 5,1.0,Other,39.44166667,-82.28555556,OH,Mar,0,0,0.877013423,3.282466443,77.13242784,128.7,0.1340571549659119,2008
642,OLD HWY 27,1.0,Arson,36.86638889,-84.49083333,KY,Apr,1,0,9.024425287,2.436690647,59.71268058,0.0,0.1550976497279488,2004
644,FY2002-DOOLY-024,12.1,Debris Burning,32.2014,-83.7933,GA,Jan,0,12,6.116071429,2.801208459,54.81873112,9.8,0.1518283634225365,2002
646,CHRISTOPHER,3.0,Lightning,34.2722222,-111.035556,AZ,Sep,3,16,23.35781544,1.850659134,47.67981791,0.0,0.4072993035087304,2010
647,PGE #2,1.5,Other,36.05823,-119.49154,CA,Aug,0,0,26.92458101,2.096757965,52.25153717,0.0,0.4911949250731027,2005
648,CON6029750,20.0,Other,35.3947,-92.8079,AR,Feb,0,15,1.198247536,2.276560789,63.53450164,16.6,0.2318452060429836,2014
654,KENSINGTON,1500.0,Debris Burning,39.83333333,-98.83333333,KS,Oct,1,0,12.19047619,4.969083969,49.28625954,0.0,0.2859650587401048,1999
662,CIG,1.0,Other,31.9167,-111.849,AZ,Oct,0,12,30.9250646,2.50620155,30.27906977,0.0,0.4169934233558297,2010
668,FY2002-TAYLOR-040,2.81,Debris Burning,32.4415,-84.1977,GA,Mar,0,12,0.0,0.0,0.0,0.0,0.1552804556401079,2002
670,HELPMEJACK LAKES,5.0,Lightning,66.9106,-153.675,AK,Jul,12,0,13.75043365,2.133637153,63.46863958,0.0,0.8586912894035243,2011
676,BOULDER,0.8,Lightning,45.18722222,-116.3205556,ID,Jul,1,9,18.76642336,1.734452555,51.60895522,11.7,0.4551229929663078,2003
684,WEITAS,8.0,Lightning,46.57666667,-115.4566667,ID,Aug,5,15,0.0,0.0,0.0,0.0,0.4460807082137461,1998
685,RUSH FK.,11.0,Debris Burning,39.43448578,-80.97662087,WV,Mar,0,0,3.64939759,3.329826733,66.47865459,39.5,0.122437589585753,2001
697,SHOE,5.0,Other,42.8848,-116.10859,ID,Aug,1,4,24.52621118,4.549813665,36.80199253,15.6,0.4536962940809865,2015
700,#9,1.0,Arson,34.8366667,-92.7663889,AR,Mar,1,16,0.0,0.0,0.0,0.0,0.2318062895759225,2010
711,OTA 127,25.0,Arson,43.2533,-116.1603,ID,Jul,0,9,21.81686122,4.244747082,38.36569149,5.6,0.4540914367171806,2011
714,BALLI,5.0,Arson,26.13027778,-98.15666667,TX,Jul,0,12,30.25891616,4.106113942,57.38341602,0.0,0.2890701506293072,2009
715,21007,2.0,Other,37.35,-94.83,KS,Feb,0,0,3.222545455,3.053818182,67.9642401,0.0,0.2495337379860136,2015
721,SHIPROCK 1,83.0,Debris Burning,36.7875,-108.6911,NM,Apr,0,0,6.245499382999999,4.773859433,43.92450495,8.9,0.3826516883500435,2009
722,DOYLE,8.0,Lightning,39.9932,-119.9877,CA,Jun,1,0,15.5336,2.9769333330000003,47.816,27.2,0.4942202298306937,1996
725,52,5.0,Other,39.01,-95.44,KS,Mar,0,0,-2.168499427,3.936896552,66.41714948,7.9,0.254386019240133,2015
730,PHOEBE ISLAND,0.7,Accidental,47.855,-91.00777778,MN,Jul,1,15,20.5701581,2.956768775,68.16287129,0.0,0.2103208496821123,2002
734,ARLENE,10610.0,Other,31.33888889,-110.54583329999998,AZ,May,6,12,9.706177156,3.596923077,0.0,0.0,0.4045070487834594,2011
744,57,0.6,Accidental,45.9916,-89.8529,WI,Apr,0,15,6.0,4.613793103,53.79310345,0.0,0.2000995831016367,1997
751,FENCEMAKER,2.0,Other,40.0649,-117.8626,NV,Jun,1,14,21.82527778,4.29375,21.26527778,0.0,0.4725553878801749,1994
755,493,10.0,Debris Burning,26.41166667,-98.92027778,TX,Jan,1,12,18.75618945,3.896736726,67.37198986,0.0,0.2960396582067426,2008
761,FY2000-POLK-105,10.11,Debris Burning,34.0531,-85.2719,GA,Jan,0,16,5.29875,0.9825,67.55844156,0.0,0.163831513910958,2000
769,LICK CREEK,25.0,Arson,35.367933,-84.39156,TN,Oct,0,15,20.11576194,0.416285154,73.98430034,0.0,0.1550827434169301,2007
775,FY2000-GRADY-073,0.6,Debris Burning,30.8988,-84.1749,GA,Feb,0,12,10.49365303,4.142172523999999,62.41923775,0.0,0.1562173027614379,2000
779,18TH AVE NE (11),2.0,Lightning,26.2639,-81.514,FL,Aug,0,12,28.58130435,2.714782609,80.65699874,303.3,0.1364048411776897,2014
788,CARROL FIRE,2.0,Debris Burning,28.34296667,-97.71205,TX,Aug,0,12,29.9369238,3.933113829,64.55549975,3.6,0.2828904830398058,2014
791,6.12015E+12,2.0,Debris Burning,31.8859302,-89.20268668,MS,May,0,12,0.0,0.0,0.0,0.0,0.2010089759528797,2015
804,FY2015-SEMINOLE-001,1.95,Debris Burning,31.01638889,-84.89972222,GA,Jul,0,12,28.82204577,1.913404951,70.59041804,0.0,0.1626370065565003,2014
808,COLUMBIA,4.9,Arson,44.70000082,-67.80000333,ME,Jun,0,15,11.35142857,3.990285714,0.0,0.0,0.0067724431516416,1992
811,2360 NORTH,70.0,Debris Burning,26.3825,-98.605,TX,Feb,1,12,-4.464861111,4.748328691,74.64306785,0.0,0.2930787647604218,2005
817,POWERPLANT,7.0,Utilities,42.60045,-114.39701,ID,Aug,0,4,24.98748261,4.396258993,36.95683453,3.3,0.4365927949789825,2000
818,SKU CANAL,2.0,Arson,41.7782,-122.6395,CA,Jul,0,15,21.00421941,2.954439252,40.08411215,0.0,0.5206880592619922,2000
826,FY2002-CARROLL-037,1.1,Accidental,33.6588,-85.1642,GA,Nov,0,16,12.962,1.625578231,63.98480243,8.1,0.1631233796990803,2001
834,BRIMESTONE,125.0,Arson,36.3156,-84.47952,TN,Apr,2,0,13.88186874,1.552968037,65.82526564,132.3,0.1553090833349424,2007
838,OLD TIMER,3.0,Other,46.44665,-111.96946,MT,Mar,4,9,-0.851944444,3.092083333,59.74444444,34.9,0.4112447677645359,1994
847,PEARL DRIVE,2.0,Other,34.74143333,-76.63756667,NC,Jul,0,16,27.91181912,4.832887975,75.77183967,61.0,0.0869210491891021,2011
848,T,10.0,Lightning,45.94527778,-115.3161111,ID,Aug,5,15,22.54532578,1.023087819,58.03835227,3.1,0.4448132550745456,2003
858,BAX23614311,27.0,Debris Burning,36.26666,-92.28333,AR,Apr,0,0,9.984333333,2.927,61.12918108,49.3,0.2264689712068655,2014
860,CLARK,1.0,Accidental,37.78222222,-118.9413889,CA,Sep,0,0,15.26635514,2.248405253,42.98915606,0.0,0.4846290400558102,2011
866,RL439,7.0,Other,47.8569,-94.8964,MN,Apr,0,15,2.538787024,4.384865629,58.29420085,13.0,0.2463847401782282,2000
873,WOOD CANYON COMPLEX,1.5,Utilities,32.2286,-104.3106,NM,Jun,0,12,28.30062112,4.452173913,39.77888199,15.1,0.3428787857430964,2010
874,762,1.0,Debris Burning,30.81772821,-89.62257954,MS,Oct,0,12,21.7015625,2.111169102,67.24425887,0.0,0.2056535221623097,2015
886,TRIBAL,5.0,Debris Burning,35.525,-106.3809,NM,May,0,15,0.0,0.0,0.0,0.0,0.3607884790592182,2002
888,JACK,0.8,Lightning,33.715,-109.1166667,AZ,Jun,1,16,23.00983146,4.043539326,25.01685393,0.0,0.3887247478700211,2000
890,WHITNEY PASS,12.0,Lightning,36.55,-114.0792,NV,Jul,2,0,33.89450549,3.364148352,8.872077029,0.0,0.43621870131364,2007
892,OGEMAW 02 - DECKERVILLE,14.6,Debris Burning,44.45954,-84.0329,MI,Mar,0,15,3.314919169,3.960214529,76.37787567,0.0,0.1477518121289611,2012
898,TURNER CREEK,48.4,Debris Burning,48.7929,-118.8518,WA,Apr,167,15,8.79620915,2.999736842,61.19894598,23.8,0.4800297438094687,2015
900,BUTTERFIELD,1.0,Other,34.505,-117.88,CA,Jul,0,16,26.85693431,4.613430657,37.93284672,0.0,0.4757571277580561,1998
904,EASTER,10.0,Debris Burning,37.1167,-107.2839,CO,Apr,0,0,3.950965825,3.312481426,58.55981595,0.0,0.3686804830504246,1998
909,CUMARO,725.0,Lightning,32.56916667,-110.4536111,AZ,Jun,3,12,26.70670038,3.870535714,21.50446999,113.2,0.4026973240532081,2008
919,30311,50.0,Debris Burning,35.51670001,-94.75148335,OK,Feb,0,15,6.28120145,2.956181015,59.50442478,0.0,0.2498524734697373,2009
921,9.2014E+11,1.0,Debris Burning,34.93883823,-89.22131759,MS,Jan,0,16,3.2492462310000003,2.868743719,78.04861111,0.0,0.199106099457603,2014
922,HONEY SPRINGS,700.0,Other,35.5367,-95.4822,OK,Aug,3,15,30.26151866,3.71056701,50.35075653,59.0,0.2566723818528424,2012
925,COUNTY ROAD 31  / COUNTY,8.0,Utilities,38.90525,-121.960717,CA,May,0,0,19.94515235,3.376144244,50.52843273,0.3,0.5149555902398779,2012
928,MT ZION,3.0,Other,32.1403,-90.6644,MS,Nov,0,12,14.73492286,1.897007948,71.00980898,0.0,0.214226392051672,2014
932,COTTONWOOD,0.9,Lightning,35.28333333,-108.35,NM,Jul,1,15,20.63549921,3.842472266,29.78095238,8.0,0.3801870871714341,2004
933,EAGLE SPRINGS SANDPIT,1.0,Arson,35.3,-79.66666666,NC,Aug,0,15,26.04566428,2.399759036,78.07130872,140.0,0.1131031893429668,2010
937,HORSE,62.0,Lightning,33.8962,-104.4169,NM,Jul,0,16,29.2421875,4.141903409,36.94460227,20.9,0.3427541118471446,1998
947,SNOW FALLS FIRE,110.4,Lightning,45.25945,-88.44646999999999,WI,May,2,9,8.897452524,4.248679944,71.71142578,49.7,0.1874278694626883,2014
953,CORNPATCH,2.0,Other,33.1501,-111.7865,AZ,May,0,16,0.0,0.0,0.0,0.0,0.4154972881546717,1993
956,FY2000-WAYNE-046,0.7,Arson,31.618,-81.8955,GA,Feb,0,12,8.75,3.944219653,58.91428571,4.6,0.1353229735364645,2000
970,HORSE PASTURE FIRE,1.8,Debris Burning,36.50583333,-81.0585,NC,Apr,0,0,7.120521172999999,2.3011204480000003,53.76137566,0.0,0.1246864920119881,2013
974,HUBBARD LN,20.0,Debris Burning,46.4054,-120.747,WA,Jul,0,9,22.19988138,3.070344009,46.05812574,25.7,0.4998206447373718,2002
977,021 DAY OFF,1.9,Lightning,31.59722222,-92.54388889,LA,Jun,0,12,23.32157407,0.0,0.0,0.0,0.2319670433636802,2012
984,RAT RIVER,1.0,Debris Burning,45.48194444,-88.49444444,WI,Sep,0,9,16.65091837,2.0541836730000003,70.25264271,18.1,0.1878069475254435,2008
988,CARPFARM,62.0,Arson,35.2758,-98.3019,OK,Aug,1,15,28.73324022,0.222890443,67.48091225,0.0,0.2833693855117736,2010
994,15-0052,2.0,Other,37.28,-94.87,KS,Nov,0,0,13.37797001,2.499187935,67.19463087,28.0,0.2499453709607821,2015
1001,18TH DRIVE,1.4,Other,43.80695,-89.25458,WI,May,0,9,11.21486762,2.641751527,66.92051282,79.6,0.1952303568133884,2012
1006,FY2011-TWIGGS-040,2.51,Accidental,32.62073868,-83.34583685,GA,Jan,0,12,4.060964912,3.282017544,67.85964912,5.0,0.1475253861168117,2011
1008,FIFTEENTH,8.0,Other,36.4103,-96.8369,OK,Feb,0,0,8.064516129,4.462919897,51.17076326,8.3,0.2688724444466612,2006
1010,CACTUS;S,1.0,Accidental,43.9592,-99.2376,SD,Jul,0,9,19.15417256,5.877227723,63.98684211,69.5,0.2882182582048926,2000
1013,HICKEY,360.0,Debris Burning,36.4739,-96.6853,OK,Apr,0,0,9.443837357,5.203049555,56.98495212,16.8,0.2674098596427618,2002
1016,GENE,15.0,Lightning,36.78,-107.2744444,NM,Aug,0,0,20.90042076,2.9109396910000003,33.76619718,3.2,0.3687752230257162,2002
1017,READING,1.0,Other,40.595767,-122.8924,CA,Oct,0,15,18.81088089,0.0,0.0,0.0,0.5237789032686173,2012
1018,CURTIS ROAD,0.65,Utilities,47.4922,-117.4899,WA,Jun,6,15,20.19478261,3.664968944,41.50870647,2.8,0.4664174266260488,2015
1022,ROCK,5.0,Lightning,42.12944444,-105.3236111,WY,Jun,0,9,0.0,0.0,0.0,0.0,0.347268890141323,2002
1023,382,1.0,Debris Burning,31.63911778,-90.25931278,MS,Sep,0,12,25.24266418,1.504291845,68.53836398,0.0,0.2108716092139753,2015
1030,20034,95.0,Arson,34.9846667,-94.97000001,OK,Jan,0,16,18.05555556,4.405555556,73.33333333,0.0,0.2522208130376069,2011
1031,WILKEY RD. 11/22/14,2.0,Debris Burning,35.52415,-84.95835,TN,Nov,0,15,7.057581967000001,2.856584362,70.12551440000001,92.7,0.160080783439457,2014
1035,WALKER,0.75,Lightning,44.94805556,-119.7075,OR,Jul,2,15,22.45513889,1.33,0.0,0.0,0.4895584553827361,2008
1040,SELECK (64),4.0,Lightning,29.0151,-80.9726,FL,Jul,0,12,27.90990991,4.09,72.83486239,0.0,0.1291827551868525,2015
1041,MAUER,15.0,Lightning,44.95083333,-112.76666670000002,MT,Jul,1,15,21.86486486,3.598648649,40.6236413,10.2,0.419553040568664,2003
1042,30117,50.0,Other,35.95900002,-94.65166664,OK,Mar,0,15,1.371495327,3.483637214,67.75585754,31.3,0.2486561415818349,2010
1045,"361 NEWTON HILL RD., AL",0.75,Debris Burning,32.142708899999995,-88.11415190000001,AL,Feb,0,12,5.272451791,2.619944598,77.41414141,206.6,0.1908896026551019,2011
1056,TWP ROR,1.0,Other,39.133333,-89.828333,IL,Dec,0,0,1.755857545,4.456419868999999,73.71175908,0.0,0.2023445304259523,2008
1062,LEONS,3.0,Debris Burning,48.4667,-108.6007,MT,Apr,0,15,3.701975309,5.768888888999999,66.79900744,5.4,0.3775836853386385,1999
1083,SCATWIL 01,3.0,Lightning,35.7917,-109.1932,AZ,Jul,0,15,21.72376238,3.40779703,34.7699005,48.8,0.388164538896629,2006
1086,FAREWELL,3.8,Utilities,35.79222222,-82.01472222,NC,Feb,0,15,1.605764761,1.427894003,60.63580247,0.0,0.1335908441971995,2011
1087,NYGARD,3.5,Debris Burning,48.1109,-105.3189,MT,Apr,0,15,2.366666667,4.347916667,71.55789474,0.0,0.3456020950982479,1995
1089,JEEP TRAIL,5.0,Utilities,39.5214825,-78.32149812,WV,Jul,0,0,24.0525641,2.451153846,60.43974359,0.0,0.0990036673545735,1999
1093,DEAD MAN,1.0,Arson,45.563,-107.6611,MT,Jan,0,15,-1.956521739,1.091304348,77.47826087,0.0,0.3689676308740806,2006
1097,MOORE,1.0,Debris Burning,36.51855,-86.556833,TN,Mar,0,0,4.918458781,3.484767025,63.17737557,60.9,0.1739198607290766,2014
1099,COLE CREEK,80.0,Utilities,45.71166667,-102.5286111,SD,Aug,0,15,24.53325183,4.428728606,46.26566416,9.9,0.3191574983615628,2006
1101,RED LAKE 178,750.0,Arson,47.92056,-95.37611,MN,Apr,0,15,4.4914232730000005,4.171892393,69.60603248,0.0,0.2508591227198471,2010
1103,LENA,1.0,Arson,34.6769444,-93.2147222,AR,Sep,0,16,23.33846154,0.847668998,73.91321244,43.5,0.236065848248909,2010
1104,JAKE,1.0,Arson,37.81888889,-91.93388889,MO,Apr,1,0,12.45777778,4.493303571,53.37659033,26.2,0.2223807236587727,2000
1113,JAZZY GIRL,20.0,Other,35.1311,-96.7453,OK,Mar,0,15,13.69692737,4.622113594,52.37173507,0.0,0.2687742173102563,2006
1122,GOOD LUCK,168.3,Utilities,45.27,-107.6309,MT,Aug,0,9,25.03559322,3.483233533,33.22477522,1.7,0.3687484611685987,2008
1127,CHUI CHU,1.0,Other,32.7537,-111.7699,AZ,Jun,0,12,28.45037106,2.149605568,19.25243619,0.0,0.4156080005094777,2009
1129,551 JARVISBURG RD,1.0,Utilities,36.17985,-75.84795,NC,Jul,0,0,24.99076923,6.13048951,0.0,0.0,0.0791836627741668,2013
1131,TEN MILE,100.0,Lightning,38.8333,-109.8173,UT,Jul,0,0,20.43333333,6.233333332999999,0.0,0.0,0.3926606408628357,1993
1140,FY2001-PULASKI-038,12.98,Debris Burning,32.2356,-83.5304,GA,Jan,0,12,-0.208988764,3.860674157,66.98863636,90.4,0.1494506354110081,2001
1145,MILE POST 6 FIRE,5.0,Other,32.27305556,-110.6427778,AZ,Nov,0,12,17.23922652,3.54461326,25.59530387,0.0,0.4047790532758002,2009
1151,DALY,0.6,Accidental,44.0772,-99.4571,SD,Apr,0,15,5.180392157,5.740784314,61.12648221,0.0,0.2902663826549814,2002
1153,JOLLY RODGER,1.0,Lightning,45.66833333,-118.04833329999998,OR,Jul,0,15,15.09700428,0.998002853,62.6073132,44.5,0.4724810330446247,1998
1158,515,15.0,Other,39.33,-95.77,KS,May,0,0,14.92316384,4.522737557,64.45588235,50.2,0.2573239583164093,2015
1172,FOWLERS FIRE,11.0,Other,29.41944444,-83.00055556,FL,Jun,12,12,24.64402578,1.623622829,69.95643259999999,0.0,0.1468817832948685,2011
1180,HILL,1.0,Other,38.3525,-122.537833,CA,Aug,0,0,0.0,0.0,0.0,0.0,0.5211721427187956,2013
1182,PEONY,0.75,Debris Burning,48.6419,-119.1895,WA,Aug,69,15,24.51089109,3.619006211,31.13664596,7.5,0.4834905121898516,2015
1197,SIMMONS POND FIRE,6.0,Other,34.1485,-78.74366667,NC,Mar,0,16,13.75256964,2.62236171,62.83293461,29.3,0.1057146148931524,2011
1199,RED WILLOW,1.0,Lightning,35.8911,-108.8073,NM,Aug,0,15,22.96373494,3.0313253010000003,42.49036145,48.7,0.3843106397640985,2005
1207,MUSKEGON 03,43.7,Utilities,43.202603,-86.09146,MI,Jul,0,9,21.10502092,4.205020921,80.69456067,0.0,0.1666745052706237,2013
1210,WESTON HILLS,6.5,Lightning,44.6061,-105.3747,WY,Aug,1,15,19.74028133,4.115473146,54.81841432,63.2,0.3469422878493886,2009
1211,2011-CARUSO FIRE-0106,1.0,Utilities,27.4463,-82.4795,FL,Feb,0,12,14.90472279,3.504825462,77.48606061,71.9,0.1439172674464419,2011
1212,LONG BRANCH,300.0,Accidental,37.96294298,-81.40544539,WV,Apr,1,0,11.11578947,3.24122807,54.25856698,171.6,0.1269670220083258,2014
1213,DEEP CREEK,224.0,Lightning,30.35333333,-82.52694444,FL,Aug,1,12,20.87555556,2.7973611110000003,73.67275281,0.0,0.1419085828251425,2013
1214,FY2001-BRANTLEY-088,4.0,Debris Burning,31.3266,-81.8971,GA,Apr,0,12,17.49793282,4.161408451000001,58.00378788,62.5,0.135554791586081,2001
1215,STOCKDALE,300.0,Other,42.0439,-111.7747,ID,Jul,3,9,22.15781466,1.839004149,38.11341632,0.0,0.4106375473838362,2007
1235,CHANDALAR,57.0,Lightning,67.983,-147.7194,AK,Jun,8,0,11.18407386,2.900983227,51.80277617,5.8,0.7920140379564891,2004
1236,WILLIAM SMITH ROAD,2.0,Accidental,39.55455495,-80.10804517,WV,Nov,0,0,10.88351921,2.264764268,72.14143921,43.2,0.1147017842356197,2005
1247,FY2014-LOWNDES-009,1.5,Accidental,30.91638889,-83.02333333,GA,Jan,0,12,13.9819398,3.618060201,78.02551020000001,41.7,0.1458992731677273,2014
1251,BOULDER-WYMAN,12.0,Other,46.40694444,-113.2186111,MT,May,2,9,9.36969697,4.552941176,55.30882353,0.0,0.4236939310217429,2001
1260,4TH OF JULY,25.0,Accidental,34.8972,-114.6331,AZ,Jul,4,16,36.173013700000006,3.840833333,15.74444444,5.3,0.4427582451848415,2015
1261,REBURN,2.0,Other,46.25,-100.6837,ND,Sep,0,9,21.26624204,3.984076433,60.32645161,78.2,0.3013609944366258,1996
1271,H HOLLOW 2,76.0,Lightning,38.75,-112.7174,UT,Jul,2,0,26.25797101,2.624271845,25.64878049,0.0,0.4214493807064239,1994
1276,8054,21.0,Debris Burning,30.83833333,-95.82066667,TX,Jul,0,12,26.7984552,2.655555556,76.16441207,101.7,0.2630707628837547,2014
1277,UNNAMED FIRE 1981,2.0,Arson,37.989414,-120.412489,CA,Oct,0,0,18.90054496,2.556070941,51.41609823,7.6,0.499534414844526,2007
1285,STERLING FIRE,4.0,Arson,47.087222,-68.048611,ME,Jul,0,15,22.69,3.766666667,66.04027778,0.0,0.0082786079712164,2013
1291,OLD WHETSTONE,18.0,Debris Burning,38.554,-82.8766,KY,Oct,1,0,16.69176801,1.097613477,77.36340598,3.6,0.1397550172819313,2015
1294,MURPH,2.2,Accidental,48.41666667,-107.73333329999998,MT,Sep,0,15,22.42778523,4.884026846,37.05779570000001,1.6,0.3690872485694116,1996
1297,FY2012-DECATUR-001,2.17,Debris Burning,30.77560111,-84.54970796,GA,Aug,0,12,28.7732342,1.693361657,67.39466292,0.0,0.1596758853267033,2011
1304,DEER LAKE,2613.0,Arson,36.8039,-96.2222,OK,Mar,3,0,7.747117517,3.426526082,69.87791343,52.4,0.26287142027464,2010
1308,6272,1.0,Other,32.60381667,-94.68415,TX,Aug,0,12,29.05348226,2.90499343,60.09592641,26.9,0.2511362255884786,2013
1309,HIDDEN AGENDA,1.0,Arson,47.9472,-117.9017,WA,Jun,3,15,14.56732026,2.527815468,57.82993197,11.3,0.4705096583807591,2014
1310,POPLAR,1.0,Debris Burning,43.73333333,-85.7,MI,May,0,9,8.702816901,2.667042254,64.39886039999999,0.0,0.1629658713465891,2000
1312,RL059,0.8,Arson,47.8725,-94.9872,MN,Apr,0,15,0.07474275,3.921515435,70.13816425,24.9,0.2472304076828242,2009
1323,DONUT,1.0,Accidental,43.0839,-102.5936,SD,Jun,0,9,19.02191235,4.552788845,54.47887324,5.9,0.3205603245974695,2006
1327,BLUE,3.0,Arson,33.3001,-110.434,AZ,Jul,0,16,27.38269135,1.575337669,42.10660661,0.0,0.4019949379320811,1992
1328,UNIT 48,23.8,Lightning,35.76823,-106.29758,NM,May,2,15,16.09089027,4.800414938,41.65344468,0.0,0.3598306298482567,1993
1334,LINDEN - 6283,1.0,Other,33.80944444,-94.96555556,TX,Nov,0,16,16.5700188,3.067199248,62.47385775,0.0,0.2529370420154513,2012
1336,HENDERSON - 385,3.0,Utilities,31.81123333,-95.6897,TX,Aug,0,12,32.40751174,2.560704225,49.79624413,0.0,0.2611118518276161,2011
1338,RL37,20.0,Other,47.8777,-95.0419,MN,Mar,0,15,-5.275035261,3.656840621,66.12552891,4.9,0.2477407339920072,2000
1339,WOODVILLE - 200,5.0,Lightning,30.42027778,-94.66861111,TX,Aug,0,12,0.0,0.0,0.0,0.0,0.2526186584023004,2009
1340,HURRICANE ASST. #3,23.5,Other,37.155594,-113.400836,UT,Jun,2,0,11.90786713,4.019300699,0.0,0.0,0.4290971856488308,2011
1351,OTA 11,18.0,Other,43.24603,-116.15787,ID,Jun,0,9,13.30010299,4.152008239,55.23178808,55.2,0.4540693788415519,2010
1357,REICHWEIN RD,0.75,Debris Burning,40.7575,-76.39,PA,Mar,3,15,-0.580921053,2.277682686,67.77845684,81.0,0.0815908358519938,2015
1368,FY2013-BULLOCH-053,1.1,Debris Burning,32.45363889,-81.70655556,GA,Mar,0,12,11.26151698,2.966914844,56.11064842,0.0,0.1330365070530956,2013
1370,BROOLYN BRIDGE,2.0,Utilities,31.05277778,-89.18444444,MS,Feb,2,12,9.673976608,2.030983847,67.15281899,1.0,0.2014644034815482,2000
1375,MCNIGHT FIRE,95.0,Lightning,30.75407502,-103.7228986,TX,Aug,0,12,27.18981748,3.2325648410000003,40.11287224,0.0,0.3383016995185006,2011
1376,"LOST CREEK RD, AL",1.0,Arson,33.932387899999995,-88.1866787,AL,Nov,0,16,13.21479514,2.14908953,77.81610247,26.1,0.1903113416233723,2011
1383,WHITE BODY,4.0,Other,47.6,-101.9004,ND,Oct,0,15,0.0,0.0,0.0,0.0,0.3127177736711846,1998
1393,CAYUSE,1077.0,Lightning,45.44222222,-114.5575,ID,Aug,12,9,21.44814616,1.901666667,47.80207197,0.0,0.437322629793248,2012
1399,UNKNOWN,3.0,Accidental,38.4621,-107.8663,CO,Mar,0,0,1.912206047,3.1404063210000004,59.73364486,14.1,0.3736702770322662,2013
1406,LAGUNA,1.0,Other,31.9117,-111.8935,AZ,Nov,0,12,22.8988764,2.990449438,24.16853933,0.0,0.4174391313095424,2008
1416,LONGHOLL2,2.0,Debris Burning,45.6894,-97.1606,SD,Apr,0,15,0.0,0.0,0.0,0.0,0.2680889334234844,2001
1423,RL192,30.0,Accidental,48.0361,-94.8855,MN,May,0,15,6.963888889,3.41349096,69.37102473,0.0,0.2462520013181262,2009
1430,CANADA,5.0,Lightning,36.11472222,-105.84166670000002,NM,Jul,1,0,17.9637883,3.863091922,30.7915506,4.2,0.35518914224633,2008
1432,FY2015-COWETA-013,2.3,Debris Burning,33.316125,-84.54743056,GA,Mar,0,16,8.166052632000001,2.622663139,76.54325581,105.3,0.1578091476297478,2015
1436,LIVINGSTON - 231,4.0,Arson,30.49633333,-95.34413333,TX,Aug,0,12,28.321,2.313888889,75.74494382,92.9,0.2588725393122921,2009
1441,DEEP LAKE,8330.0,Lightning,26.03333,-81.3,FL,Jun,4,12,18.20041667,1.5854166669999998,0.0,0.0,0.1347212166478804,2008
1454,HIDDEN VALLEY,6.5,Lightning,42.885,-114.0164,ID,Jul,0,4,23.9744186,3.968946648,40.26164384,1.3,0.4326802336716109,2012
1455,MS2003,30.0,Debris Burning,47.9722,-98.8726,ND,May,0,15,8.763472222,4.978412256,63.93871866,58.5,0.2837861775121442,1996
1459,BIRTHDAY (38),7.0,Lightning,29.3822,-82.7936,FL,Aug,0,12,26.90282916,1.865141612,78.29812981,88.3,0.1450654502296131,2011
1466,AIRPORT,20.0,Utilities,34.6264,-95.318,OK,Jul,0,16,25.97928731,3.42760181,72.32805429999999,85.6,0.2557007572313801,2014
1474,LA PLATA 3,2.0,Lightning,36.8728,-108.1854,NM,Jul,0,0,22.49909366,4.063842663,33.45440729,17.0,0.3776409435167815,1996
1480,SLICK CREEK 8,2.7,Other,43.99672,-107.87236,WY,Jun,0,9,13.77246558,2.802889447,48.26778784,27.2,0.3714790745830358,2012
1482,HORSE STABLE,1.0,Other,36.3425,-96.8003,OK,Aug,1,0,32.16282051,4.507564103,45.52051282,0.0,0.2685671110664713,2006
1489,SOME KUDZU,1.5,Arson,36.86805556,-84.4025,KY,Mar,3,0,6.440629471,2.900429799,59.6312769,0.0,0.1543036770471524,1999
1496,RL489,3.0,Debris Burning,47.8797,-94.8908,MN,Apr,0,15,2.264003897,3.041305407,66.87989276,0.0,0.2463284299069914,2003
1512,8017,1.0,Debris Burning,30.84941667,-94.75041667,TX,Mar,0,12,11.98100665,2.244940618,62.43264124,6.6,0.2530493828391187,2013
1518,FLEMING,5.6,Utilities,38.7025,-120.5541667,CA,Jun,0,0,10.6433584,2.345488722,53.80276382,14.3,0.5006226999845609,2012
1519,WHEAT,3.5,Arson,33.4735,-111.8174,AZ,Jun,0,16,33.93305439,4.270711297,13.53556485,0.0,0.4155834106993865,2008
1520,STATE,2.0,Other,33.706481,-117.2667,CA,May,0,16,0.0,0.0,0.0,0.0,0.4700658490293332,1998
1522,RT 10 NEAR SAND CREEK,0.8,Debris Burning,38.02980904,-82.12238461,WV,Jun,0,0,21.47347704,1.75267104,72.50952381,110.2,0.1333018139792616,2005
1523,LIVESTOCK YARD,1.0,Other,46.94317,-114.13546,MT,Jul,1,15,24.31052632,2.7921052630000003,27.86842105,0.0,0.4327431125420959,1994
1528,FITZHUGH WILLIAMS LN,60.0,Debris Burning,34.30333333,-78.32166667,NC,Apr,0,16,17.37406367,1.688202247,69.34233199,0.0,0.1019122040630606,2012
1529,VALLEY CRK 184,1.3,Other,47.161,-114.2815,MT,Oct,3,15,12.38704104,1.418290043,47.5387132,17.8,0.4341613660108352,2012
1531,OWL SPRINGS 1,1.0,Arson,36.107690000000005,-108.85778,NM,May,1,0,15.0472,3.8836,22.24533333,0.3,0.3846791918600514,2012
1536,HAWK CREEK,75.0,Lightning,46.2739,-108.1459,MT,Aug,0,9,19.93895349,3.2239825580000003,58.0,192.4,0.3735435746957025,1998
1539,RADIO RANGE,3.0,Utilities,34.83888889,-76.80666667,NC,Feb,0,16,-6.845833333,4.543194444,83.11251981,0.0,0.0883321685211944,2013
1542,HONDAH,1.5,Utilities,34.0945,-109.9229,AZ,Aug,0,16,24.0,4.664942529,41.85057471,0.0,0.396416371765476,2002
1543,LIVINGSTON - 52,1.0,Arson,30.79303333,-93.71521667,TX,Feb,0,12,8.734643848,2.353077279,76.39696525,2.9,0.2434458042224692,2011
1555,PETERSONII,20.0,Other,45.6833,-101.1338,SD,Oct,1,15,13.024528300000002,4.387264151,64.78606965,877.0,0.3057970478335361,1995
1564,H. GROUND,3.0,Arson,33.3501,-110.434,AZ,Aug,0,16,31.31587302,1.568253968,35.26984127,0.0,0.4019608307114053,1993
1565,RIDGE,2.5,Lightning,36.47333333,-106.245,NM,Aug,0,0,18.63,3.068333333,34.65,0.0,0.3589063041954912,1995
1566,MOSQUITO CREEK,115.0,Lightning,38.80916667,-116.68194440000002,NV,May,1,0,9.72135785,3.828712871,40.15134371,13.0,0.4611938706795995,2004
1567,11-00098,1.0,Other,44.076,-107.924611,WY,Jun,0,15,14.44154412,3.044485294,58.5855181,83.1,0.371966405740741,2011
1568,"9769 HWY 159, AL",5.0,Debris Burning,33.5995656,-87.87323,AL,May,0,16,19.84400806,2.504531722,71.84274194,61.4,0.1876800217623948,2011
1583,HOLIDAY,1.4,Other,40.696883,-122.151983,CA,Jul,0,15,23.54930556,3.84875,68.45138889,0.0,0.5161057436028238,2013
1585,FY2013-DECATUR-006,1.21,Debris Burning,30.91525278,-84.53261667,GA,Nov,0,12,18.48390107,2.3390107330000003,69.35994051,0.0,0.159415053552872,2012
1593,GOOD FRIDAY,9.0,Accidental,48.4903,-108.7985,MT,Mar,0,15,-0.260927152,3.97530454,66.55099778,2.6,0.3795230784704735,2008
1599,PENNER POND 21,62.0,Lightning,29.48277778,-81.80916667,FL,Aug,2,12,26.98352941,1.84893617,72.438949,0.0,0.1362187326665453,2014
1604,RL636,1.0,Other,47.873000000000005,-95.0431,MN,May,0,15,7.271463614,4.777414075,54.53688525,0.5,0.2477527730545561,2002
1608,SAPLIN HEAD,23.0,Accidental,30.19416667,-84.81638889,FL,Feb,0,12,14.69289694,3.083426184,80.47075209,0.0,0.1625264819008556,2013
1610,WEBB ROAD,94.0,Arson,37.95896804,-82.46998378,WV,Feb,1,0,0.0,0.0,0.0,0.0,0.136433239171972,1992
1613,GREEN PASTURES FIRE,1.0,Debris Burning,36.1975,-78.18826667,NC,Feb,0,0,6.93268338,1.75538533,54.82472204,1.8,0.0995783715133378,2012
1620,GARDEN BURNER,8.9,Arson,36.8961,-94.7139,OK,Mar,0,0,3.740671642,2.8773787310000003,71.33018422,0.0,0.2486991654712118,2008
1624,HOURGLASS,1221.0,Lightning,40.05,-105.05,CO,Jul,6,14,24.02727273,4.972323232,37.0,0.0,0.34547035242051,1994
1626,LIME KILN #1,15.0,Lightning,42.28833333,-112.3533333,ID,Aug,0,9,0.0,0.0,0.0,0.0,0.4162980136482848,1996
1629,MELTON 1,3073.0,Lightning,47.4289,-114.3914,MT,Aug,31,15,19.62956927,2.441128085,46.65099882,37.0,0.435210229795721,2015
1633,30463,15.0,Arson,35.87686666,-94.55785001,OK,Sep,0,15,26.52528978,3.15060622,61.10701107,29.8,0.2478292581100214,2011
1634,JOSHUA,8.25,Lightning,32.85722222,-108.8655556,NM,Jun,8,12,20.17888837,3.963708547,39.66382576,0.0,0.3868417788140208,2007
1639,15-0156,2.0,Utilities,38.78,-99.56,KS,Sep,0,0,24.87593633,5.527928772,49.19400187,6.3,0.2933614581710186,2015
1642,FY2012-DOOLY-025,6.78,Utilities,32.12529791,-83.78150273,GA,May,0,12,23.40492794,2.240399814,65.08011869,0.0,0.1517777149736345,2012
1643,JOHN STARR,14.3,Lightning,40.5375,-110.1622,UT,Aug,3,15,23.73879195,2.222476447,39.01358696,0.0,0.3952794688827863,2012
1665,17-PILGRIM TRAIL FIRE-0309,4.0,Other,30.7819,-87.4196,FL,Feb,0,12,11.77642586,2.546577947,66.34125475,85.7,0.185590279336703,2011
1669,C-1 WASH,1.0,Lightning,34.1184,-110.4423,AZ,Jul,1,16,24.66647399,3.584971098,43.11560694,16.0,0.401529731573383,1996
1670,LAWN MOWER MAN,0.8,Other,35.69616666,-80.07783333,NC,Nov,0,15,13.36139169,2.014927048,70.43766234,0.0,0.1164887781965915,2010
1673,FIRE BALL,12.0,Utilities,31.165,-89.14,MS,Feb,1,12,8.403098592000001,2.432676056,64.57323944,0.0,0.2009728631222234,1996
1677,LEWIN,120.0,Utilities,33.77845,-117.459261,CA,Aug,0,16,25.9410828,2.091082803,59.09369952,0.0,0.4719675132355048,1998
1681,BIG HLW 2,2.0,Other,34.58149,-88.24894,MS,Jul,0,16,26.71757925,2.211255411,73.84057971,0.5,0.1904567985394607,1993
1687,MERRIWEATHER,560.0,Other,30.43527778,-103.7019444,TX,Dec,1,12,7.841187383999999,3.739053803,52.76107516,7.4,0.338347311286101,2009
1688,BANKS,3.5,Accidental,47.38306,-95.49222,MN,Apr,0,15,10.28167053,4.027331787,48.25314685,0.0,0.2520442470333146,2010
1694,A. J. LANE,3.0,Debris Burning,34.13116667,-78.85683333,NC,Jul,0,16,25.37447208,1.925809479,82.54012201,233.6,0.106719664953379,2013
1695,FY2011-CALHOUN-034,1.06,Debris Burning,31.45949288,-84.51523117,GA,May,0,12,10.23171329,3.698321678,0.0,0.0,0.1588471196348877,2011
1705,HEISLER RD (32),5.0,Debris Burning,30.925,-85.5009,FL,Jan,0,12,12.89735099,2.922913907,77.72268908,109.2,0.1681199106342925,2014
1707,OTA 11,4.0,Lightning,43.26661,-116.12597,ID,Aug,0,9,27.75638889,4.207222222,28.93741307,0.6,0.4537408294975928,1994
1710,ASH,30.0,Utilities,39.175,-119.83,NV,Oct,0,0,12.6351227,1.683282209,52.13713405,0.0,0.4929891277624032,1995
1711,RUUD,4.0,Debris Burning,35.01218333,-84.25651666,NC,Apr,0,15,12.3042247,1.689229341,68.05146364,96.4,0.1540904717134426,2014
1712,LESLIE,2.0,Other,39.825,-120.375,CA,Aug,0,0,21.42625,4.1971875,44.534375,0.0,0.4982558867576891,1992
1713,KING RUN ROAD,3.0,Arson,38.85449901,-79.83531315,WV,Apr,0,0,11.04538198,2.481185861,66.16469194,102.8,0.1126298582422056,1998
1714,DEAD CALF,2.0,Arson,35.8506,-85.173683,TN,Mar,0,15,3.044476465,3.316330451,73.11175899,87.0,0.1618228484604182,2013
1717,STONE HOUSE RD.,3.0,Utilities,37.99803165,-80.8932798,WV,Apr,0,0,8.571723426,2.551913133,71.95254237,0.0,0.1224095086061174,2003
1718,WALATOWA,1.0,Arson,35.64444,-106.72669,NM,Jun,1,15,16.77321429,4.010714286,37.01785714,0.0,0.3640873078532418,2010
1719,CAP1,250.0,Lightning,33.4001,-103.7172,NM,Apr,0,16,26.20013889,4.027916667,69.85277778,0.0,0.3363266350063121,1994
1720,MULE PASS,122.0,Other,31.5,-110.0,AZ,May,3,12,22.3875,3.920915033,15.24618736,0.0,0.3989946897054304,2009
1737,WINNIE DAM #1,1.03,Arson,47.35444444,-94.17194444,MN,Apr,0,15,-2.140772128,3.217710787,56.21573245,18.3,0.2397186201489152,2005
1751,SECTION 30,40.0,Other,35.0833,-114.6175,AZ,May,1,15,20.59446009,4.205633803,30.97464789,0.0,0.4424856355936264,1993
1755,ANDERSONBR,1.5,Lightning,47.55,-109.5841,MT,Jun,0,15,13.37630058,4.114017341,56.98265896,0.0,0.3874134285479929,1994
1761,FY2014-MACON-010,1.89,Debris Burning,32.35810278,-84.20607778,GA,Mar,0,12,9.87856142,2.511816908,66.98287888,0.0,0.1554151772795582,2014
1762,NORTH BEAVER CREEK,2.0,Lightning,39.06333333,-104.9327778,CO,Jun,1,0,0.0,0.0,0.0,0.0,0.3447927460742708,2004
1764,"27301 CORD 32, AL",2.8,Other,31.3509515,-85.33582320000001,AL,Mar,0,12,15.74037404,3.75159516,71.50839329,89.6,0.1663092557736565,2011
1772,B FIREHOLE,1.0,Lightning,41.338,-109.3985,WY,Aug,0,15,18.38235294,5.205392157,50.67171717,0.0,0.387415084378756,1997
1776,BOLGER FIRE,5.0,Debris Burning,35.2078,-87.971067,TN,Mar,0,15,7.61657754,2.797112299,66.56363636,56.9,0.187533651098207,2014
1788,008-032,1.0,Other,41.248333,-89.238056,IL,Mar,0,15,0.699628598,4.776259328,75.55246766,0.0,0.1960038789995819,2008
1791,TH1815,200.0,Arson,47.9875,-99.0296,ND,Oct,1,15,7.052932761,5.410364963999999,62.34579439,6.1,0.2852724490090927,1999
1792,FY2015-EARLY-015,15.0,Debris Burning,31.26656944,-84.876375,GA,Mar,0,12,9.513663733,1.943492358,64.35900339999999,0.0,0.1622373390982769,2015
1794,FY2012-MERIWETHER-006,0.66,Debris Burning,32.91407029,-84.56089574,GA,Aug,0,12,28.66748406,1.63737126,72.40776183,0.0,0.1582072885726937,2011
1795,NOT READY,1.5,Debris Burning,26.2275,-98.35555556,TX,Jun,1,12,27.31606557,5.768852459,77.27364865,37.4,0.2908609379607019,2004
1797,LINDEN - 235,15.0,Lightning,32.89211667,-94.68493333,TX,Jun,0,12,29.73902672,2.8133877160000003,59.63676471,0.0,0.2509410759729775,2011
1811,CAN,1.2,Utilities,41.61869,-87.18137,IN,Sep,0,15,18.69734513,4.32079646,0.0,0.0,0.1771215748135723,1995
1817,RT301EAST,4.0,Accidental,35.0856,-108.7867,NM,Jul,0,15,0.0,0.0,0.0,0.0,0.3845969430286684,1997
1818,BUTTERMILK,150.0,Lightning,41.7,-117.48333329999998,NV,Jul,1,15,25.15930556,3.862527716,16.42793792,0.0,0.4680264962472933,1994
1819,"1724 ROBERTSMILL POND RD, AL",3.0,Debris Burning,33.587684499999995,-86.3352112,AL,Mar,0,16,-13.29613336,3.0736111110000004,0.0,0.0,0.1737374760507828,2011
1835,MHM SE 36,10.0,Lightning,63.6828,-151.0856,AK,Jun,92,0,27.53833333,3.583194444,76.54722222,0.0,0.8279174524665769,1993
1837,JACK KNIFE II,1.2,Lightning,44.73,-101.8288,SD,Aug,0,15,27.61209239,4.27826087,41.21467391,2.1,0.3127047870502883,2006
1852,JEFFERSON,10.0,Arson,41.995131,-122.603839,CA,Oct,2,15,0.0,0.0,0.0,0.0,0.5202372079678437,2003
1855,PAPOOSE,19520.0,Lightning,45.27,-114.805,ID,Aug,91,9,23.02020677,1.387288136,45.57149599,0.0,0.4398507301035446,2007
1861,WESTWATER 1,90.0,Lightning,39.0636,-109.1575,UT,Jul,3,0,26.76798603,3.597183099,29.43544601,6.0,0.3860492265122077,2009
1869,DEER VALLEY FIRE,1.5,Other,36.559666,-81.31263299999999,NC,Feb,0,0,-0.081053649,4.038279362,54.54570038,13.9,0.1269084647498219,2015
1870,RL212,1.0,Other,48.0613,-94.9967,MN,Apr,0,15,2.1875,2.977083333,72.49488927,0.0,0.2472867549013422,2002
1878,35 E,5.63,Debris Burning,31.67583333,-92.85027778,LA,Feb,0,12,9.663311688,2.106679035,69.50901804,52.4,0.2347476096770173,2015
1881,EUCALYPTUS 2 (26),1.0,Lightning,26.5983,-81.37899999999999,FL,Jul,0,12,27.14753927,2.657127772,75.79281184,201.4,0.1348984872647163,2015
1882,WATER TOWER,2.0,Arson,34.65,-94.705,OK,Mar,0,16,0.0,0.0,0.0,0.0,0.2499565938718246,1995
1883,NESP DUMP,4.0,Other,48.1375,-119.0061,WA,Jul,0,15,21.27710843,3.645515395,44.0811908,25.4,0.4817016862014107,2005
1892,STEAMHOLLO,4.0,Other,38.507090000000005,-78.56877,VA,Apr,2,0,6.691114245,2.451480959,59.96466974,0.0,0.1016627117933439,1996
1898,HARMON II,170.0,Debris Burning,36.90167,-84.94834,KY,Nov,0,0,10.49160369,2.609587889,71.52409639,91.2,0.159189728465144,2011
1902,DITCH,4.0,Other,33.1173,-111.9179,AZ,Aug,0,16,33.01422594,2.789400279,27.17573222,0.0,0.4168250873584964,1994
1906,17 - HWY 90 FIRE,10.0,Debris Burning,30.5347,-87.4156,FL,Feb,0,12,9.060546875,3.0937438910000004,77.82604374,34.4,0.1857455581298899,2011
1909,LOST 2,792.0,Debris Burning,36.4347,-96.0783,OK,Apr,1,0,11.47486157,4.217607973,68.16297118,131.0,0.2617302635747451,2008
1913,30445,7.0,Debris Burning,35.61921666,-94.79961669,OK,Aug,0,15,30.73886827,2.454128015,52.66796875,0.0,0.2502400187340283,2011
1922,(OK) LARSONS (746),22.5,Other,27.2492,-80.74600000000001,FL,Dec,0,12,13.59017176,2.635782443,69.26420298,0.0,0.1287009490419723,2010
1923,RED HOUSE 2,110.3,Lightning,41.1567,-116.0739,NV,Jul,12,15,24.26769852,2.57100271,21.7734057,0.8,0.4540016255441002,2007
1926,15-BLUE DUCK FIRE SET 2-0121,12.0,Arson,29.6254,-83.2385,FL,Mar,0,12,15.27629734,2.621598878,69.75539568,63.0,0.1488392108827982,2011
1939,FY2015-RANDOLPH-009,2.43,Debris Burning,31.6625,-84.77501944,GA,Jan,0,12,10.01408451,2.092957746,85.34782609,0.0,0.1610302884903012,2015
1945,MS2208,4.0,Arson,47.975,-98.8296,ND,Apr,0,15,6.90978399,4.848538755,61.10561798,27.5,0.2833780611517464,1998
1949,UPO,1.0,Other,43.3311,-102.1958,SD,Nov,0,9,4.329961088999999,2.65226978,62.89542484,15.7,0.3166566067613543,2011
1955,RED LAKE 069,0.8,Arson,47.8692,-95.1805,MN,Mar,0,15,-1.024265049,3.959122725,72.13816127,0.0,0.2490380696393768,2012
1959,FY2003-BARTOW-006,3.0,Arson,34.31863882,-84.89151561,GA,Aug,0,16,0.0,0.0,0.0,0.0,0.1602348992646736,2002
1961,8TH HOLE,1766.0,Other,39.5519,-119.6652,NV,Jun,2,0,20.98793503,3.96068477,28.95985832,1.6,0.4911290306421831,2000
1962,SNIDER,1.0,Debris Burning,47.60666667,-115.22,MT,Mar,0,15,4.459504132,2.790909091,0.0,0.0,0.4434927557472958,1995
1971,FRANKS RD FIRE,16.0,Lightning,32.091359999999995,-96.95972,TX,Oct,0,12,25.31357909,3.100933271,40.26271582,0.0,0.2728351876563659,2011
1974,SQUIRREL,0.8,Lightning,33.78555556,-108.70166670000002,NM,Jun,1,16,0.0,0.0,0.0,0.0,0.3845980101428419,1999
1985,FOWLER CREEK,2.0,Debris Burning,47.17398,-121.05123,WA,May,10,15,-0.539130435,2.790211433,83.91811024,78.1,0.5027749474509315,2008
1986,DENNY,3.0,Debris Burning,35.9667,-110.584,AZ,Mar,0,15,0.0,0.0,0.0,0.0,0.4017804723823679,1996
1988,FY2002-BULLOCH-137,0.98,Arson,32.3893,-81.58800000000001,GA,May,0,12,24.00120337,2.686987952,59.78313253,0.0,0.1320296185170542,2002
1989,FAIRVIEW,6.0,Utilities,33.716111100000006,-116.871111,CA,May,0,16,14.97763713,2.534915612,64.9826087,1.3,0.4660580632492992,2010
1994,TOWNHALL,0.6,Other,43.68,-85.81,MI,Apr,0,9,3.939262372,3.405182073,67.88281979,0.0,0.1639755307544652,2013
1997,BARNES FIRE,2.0,Debris Burning,37.83625,-85.54896,KY,Mar,0,0,8.241395349,4.084069767,74.38328912,234.4,0.1640929947021312,2011
1999,7055,6.0,Lightning,31.70405,-95.31631667,TX,Jul,0,12,26.30427679,2.177259615,66.10331384,0.0,0.2576947565282312,2013
2000,ALCHESAY,1.9,Lightning,33.93,-109.9207,AZ,Aug,0,16,24.6,3.895,44.47777778,16.0,0.3965029397689252,1996
2005,RIVERA,5.0,Utilities,35.7619444,-106.598333,NM,May,11,15,9.925857275,4.006403712,40.53062179,0.0,0.3627651319559533,2010
2012,TUTON,1.0,Lightning,33.0123,-105.428,NM,Jul,0,16,22.25298805,3.50558325,38.66092245,0.0,0.3531521879005559,2002
2014,WOHLFORD 3,3.0,Other,33.178331,-116.97159,CA,Jul,0,16,18.54621212,1.873456121,67.91933702,0.8,0.4674384368662156,2009
2015,17CALIBER,1.0,Utilities,46.6711,-92.5881,MN,Apr,0,15,5.8003705420000005,3.4146827230000003,64.52987494,0.0,0.2251460755347054,2012
2019,1191,4.0,Debris Burning,37.6,-97.52,KS,Feb,0,0,3.2475051980000003,5.405197505,65.32901834,22.6,0.2746494018298819,2015
2023,JENKINS FORK #2,6.0,Arson,38.09469758,-81.18977161,WV,Apr,0,0,6.479612546,3.096930233,59.30139535,134.1,0.1249861386478565,2013
2026,R7,1.0,Accidental,47.8666,-95.1336,MN,Mar,0,15,-6.040336134,4.154481793,67.89775909999999,0.0,0.2485999564433723,1995
2027,2NDCHANCE,130.0,Debris Burning,45.2155,-107.6201,MT,Oct,0,9,12.41596639,3.064145658,42.81372549,1.1,0.3686573125736387,2003
2028,FY2013-PIERCE-004,1.1,Debris Burning,31.46638889,-82.23573056,GA,Jan,0,12,11.18975904,2.45060241,77.13734568,74.7,0.1384621109513537,2013
2032,FY2012-BULLOCH-044,15.04,Debris Burning,32.32505456,-81.89207404,GA,Feb,0,12,11.48170732,1.644740854,66.23145401,0.0,0.1347768484485181,2012
2056,30157,5.0,Debris Burning,35.57558333,-94.92695001,OK,Mar,0,15,9.810185185,3.1983333330000003,64.28466077,0.0,0.2514557360937159,2011
2059,HOTSPRINGS,2.0,Debris Burning,43.0083,-108.8354,WY,Apr,0,9,3.913176144,3.07073509,54.42458101,12.9,0.3812512021667262,1996
2061,SCHOLHOUSE,47.0,Debris Burning,33.1667,-116.6342,CA,Jan,1,16,12.71694915,1.257627119,0.0,0.0,0.4640368923639208,1992
2077,CENTURY,1.0,Other,34.29972222,-118.27,CA,Oct,0,16,22.49858612,1.971722365,48.04633205,0.0,0.4798479394823423,2008
2089,TOAD,1390.0,Lightning,37.70666667,-111.8302778,UT,Aug,63,0,18.01566986,3.1546107780000003,56.73381295,61.7,0.4131578833623444,2007
2101,JIM CREEK,2.7,Debris Burning,48.35331,-119.20617,WA,Feb,0,15,3.126208178,1.808093023,83.65837321,25.6,0.4837046033869203,2015
2103,FIVE STAR,153.0,Other,38.385,-93.666667,MO,Mar,0,0,10.92221705,4.151036758,62.70881783,0.0,0.2381499363462909,2012
2108,HENDERSON - 068,1.0,Debris Burning,32.26045515,-94.21443691,TX,Feb,0,12,10.67338004,3.837401229,69.19819005,93.8,0.2470003651940759,2009
2118,LMU LGT 56,2.0,Lightning,40.95655,-120.92275,CA,Aug,0,15,18.9756447,2.538825215,41.79624277,14.0,0.5033714757763408,1999
2119,SUNDANCE,10.0,Lightning,37.1983,-108.7307,CO,Jun,0,0,19.58156028,4.107644306,26.74102964,0.5,0.3828129958241852,2001
2122,GARCIA 2,2.0,Arson,39.49388889,-123.0936111,CA,Sep,6,0,23.84383954,1.5948424069999998,46.4512894,0.0,0.5263492386786861,1998
2124,SHELL,1.0,Lightning,33.585,-109.4733333,AZ,Jul,2,16,28.10683761,4.114529915,30.04755043,5.1,0.3923229599633926,1998
2125,W.PRYORS,5.0,Lightning,45.3166,-108.584,MT,Jul,2,9,17.89679767,3.252547307,44.8937409,0.0,0.3780789211232342,1996
2126,LOVE CEM. RD.,2.0,Other,37.3532486,-88.16657257,KY,Nov,0,0,9.774637342,2.377351427,72.96155958,39.7,0.1880710555820361,2013
2128,4.72014E+12,1.0,Utilities,30.5069631,-88.95722031,MS,Jul,0,12,27.15032468,2.794805195,77.0877193,54.9,0.1998085472737187,2014
2129,BALL HILL,15.0,Debris Burning,37.56805556,-91.37972222,MO,Mar,0,0,5.188715278,0.0,0.0,0.0,0.2173991506213499,2007
2131,CR 392 (07),2.0,Other,30.2696,-85.1999,FL,Mar,0,12,18.60768793,3.0890097310000004,80.2018018,38.5,0.1659174953822386,2012
2135,RL036,3.0,Arson,48.1225,-95.5536,MN,Apr,0,15,0.215083799,5.509967396,66.93600391,1.0,0.2524864556263402,2008
2138,KENTON,15.0,Arson,33.3167,-110.4342,AZ,May,2,16,20.39972337,3.8593361000000006,24.27939142,15.6,0.4019855813815947,2005
2143,HAZ HOGS,1.0,Debris Burning,43.2089,-102.7844,SD,Feb,0,9,-2.528959811,3.061229314,69.73640662,9.5,0.3223521384358838,2012
2157,BLACK CREEK,2.0,Accidental,33.34583333,-97.59583333,TX,Mar,1,16,12.29562044,3.264841849,67.16501241,18.5,0.2779483482626557,2005
2159,HORSESHOE LAKE,2.6,Other,48.1113,-114.6507,MT,Sep,0,15,15.51986395,1.63989071,53.13424658,2.6,0.4376880863344154,2009
2168,AIRPORT 1,4.0,Arson,41.0481,-123.6728,CA,Jul,0,15,13.66996078,2.592295597,85.28991263,18.5,0.5316512415463934,2014
2170,THIRTY,1.0,Other,36.373483,-88.85985,TN,Jun,0,0,11.78445221,3.913146853,0.0,0.0,0.1949409569483557,2011
2184,TWO FINGER,27.0,Arson,36.72,-84.34166667,KY,Mar,0,0,9.591373802,0.0,0.0,0.0,0.153840777279355,1995
2195,PARKER CANYON,1.0,Accidental,31.42833333,-110.4505556,AZ,May,0,12,21.93745583,4.303886926000001,23.98586572,10.5,0.4034980772572825,2007
2202,20126,40.0,Arson,34.7875,-95.83444444,OK,Jul,0,16,28.39497354,2.141456954,61.41986755,69.0,0.2604355178969544,2012
2203,05-02-NOV/MORRIS FIRE-1807,1.5,Debris Burning,30.3864,-82.2025,FL,Dec,0,12,9.807034483,2.962206897,67.47316384,0.0,0.1389933579615812,2010
2205,HAMPTON 5 (53),30.0,Arson,28.2821,-81.9995,FL,May,0,12,21.47524752,2.327062706,59.30993279,0.0,0.1389156107730369,2013
2213,RUBY,2.0,Other,38.16083333,-120.2441667,CA,Jun,1,0,11.60813517,2.037546934,54.6620603,11.6,0.4977241754665276,2007
2227,CUTTING TORCH FIRE,4.0,Other,35.7575,-89.48283,TN,Apr,0,15,14.95759553,3.10858209,56.61520522,97.8,0.2009979104163428,2007
2231,SLASH,1.5,Lightning,42.88333333,-122.6833333,OR,Aug,1,4,24.85702087,1.912943432,38.75263663,26.1,0.5207330155639049,2013
2232,RL037,1.5,Debris Burning,47.8744,-94.9836,MN,Apr,0,15,-1.45745181,4.733850494,69.52971945,248.7,0.2471964325661075,2004
2234,PINE WOOD (5),5.0,Arson,27.8586,-80.5224,FL,Oct,0,12,0.0,0.0,0.0,0.0,0.1261849339783265,2010
2235,RL 337,1.5,Arson,47.8806,-94.8939,MN,Apr,0,15,1.751149719,1.988087935,64.58724302,0.0,0.2463572325785741,2015
2238,HWY. 157,18.9,Debris Burning,35.03595,-88.91901700000001,TN,Mar,0,15,7.298783186,3.063606195,69.33444075,56.4,0.1962827612632338,2010
2243,EL MIRAGE,20.0,Other,34.6922,-117.5356,CA,Aug,0,16,30.17602041,3.70511509,33.71948052,0.0,0.4721464961497037,2005
2248,FFS 136/ 184 WF,4.3,Other,25.987958,-80.492903,FL,Mar,0,12,24.14956803,4.256724512,75.16240267,61.8,0.1276176305228287,2015
2256,LAWN CHAIR,2.0,Other,35.83265,-78.59518333,NC,Feb,0,15,3.5161648910000003,1.603659101,64.45011601,0.0,0.1033603912781804,2011
2260,NO ACCESS,2.5,Other,33.3417,-112.2124,AZ,May,0,16,25.37915743,4.564846416,20.70648464,0.0,0.4195987427873922,2000
2261,CEDAR CANYON,120.0,Debris Burning,36.5972,-96.3836,OK,Mar,0,0,3.971766169,3.867661692,61.0,16.5,0.2645038222784461,2007
2268,SPAR PEAK,3.0,Lightning,48.22333333,-115.9883333,MT,Jul,0,15,18.93944444,3.097222222,48.31527778,0.0,0.4511180958711382,1994
2270,COUNTY LINE,2.5,Lightning,34.5,-104.066667,NM,Jul,0,16,28.85654008,5.637446809,34.54680851,0.0,0.3389746214025699,2011
2273,NORTHCINDR,64.0,Lightning,43.23469,-115.95306,ID,Jul,1,9,22.84100418,4.644885496000001,32.16666667,0.0,0.4520087956635654,2000
2292,TREE,1.0,Arson,45.6916,-107.5312,MT,Mar,0,15,2.886855241,3.421131448,48.93812709,0.5,0.3676640154088093,1999
2300,CALPAC4,4.0,Arson,41.0332,-123.6512,CA,Jul,0,15,12.59470135,3.766377649,85.24205915,1.8,0.5314339526666767,1999
2301,415 POWERLINES (64),4.0,Lightning,28.9279,-81.1449,FL,Jul,0,12,27.52968198,3.201420118,72.56804734,86.8,0.1307820039766765,2015
2302,LOUISIANA MAN,2.0,Arson,31.03416667,-89.03361111,MS,Nov,3,12,14.20949721,1.196078431,69.00998573,4.9,0.2000999110958998,1999
2304,FY2000-GORDON-066,4.86,Arson,34.4644,-84.9869,GA,Mar,0,16,11.55987261,2.257324841,64.00984529,68.2,0.1609988695329152,2000
2317,ORGAN,13804.0,Lightning,32.2834,-107.1672,NM,Jun,18,12,30.89197861,2.574064171,23.5802139,0.0,0.3706054848675466,1994
2326,POTTER 2,5.0,Lightning,35.5603,-101.7264,TX,Jul,0,15,25.34233207,6.279187817,56.04452926,28.5,0.315798845296126,1997
2327,WHITE,5.0,Debris Burning,45.5386,-97.0623,SD,Apr,0,15,0.0,0.0,0.0,0.0,0.2672012924128404,2001
2328,IRON HAWK,2.0,Arson,46.3886,-100.5875,ND,Mar,0,9,-1.240193237,4.242746615,69.10623782,12.6,0.3004112736275997,2008
2329,COOPERS CR.,5.0,Debris Burning,35.46692,-83.38553,NC,May,1,15,14.34874505,1.213143989,61.14758438,0.0,0.1460100446033281,2008
2336,25 MILE II,2096.0,Other,48.0072,-120.2425,WA,Jul,118,15,19.39192708,3.011096606,54.39164491,43.7,0.4943397903623063,2013
2354,RND BALE 2,1.0,Other,48.1103,-105.2097,MT,Aug,0,15,20.66025641,3.65,51.84615385,0.0,0.344542578819548,1995
2355,(MA) ROSEMARY ONE (433),40.0,Lightning,27.1714,-80.3775,FL,Jul,0,12,30.18133333,4.841397849,69.12903226,0.0,0.1255121713858391,2010
2357,NE 30136,4.0,Arson,35.7083,-94.6808,OK,Mar,0,15,3.0307692310000003,2.817344554,65.03967447,0.0,0.2490771664858548,2010
2360,7059,30.0,Debris Burning,31.23718333,-95.52326667,TX,Nov,0,12,13.90042878,2.42553597,69.33114949,0.0,0.2599805208389714,2014
2362,COOPER CREEK,2.0,Accidental,44.14166667,-86.39166667,MI,Sep,0,15,19.02292264,2.249426934,73.09885387,0.0,0.1690865925111733,1996
2363,VAN10310565,3.0,Utilities,35.7055,-92.5757,AR,Mar,0,15,3.566479401,1.26,66.13381369,0.0,0.2295059150552545,2014
2368,ARMIGO,1.5,Lightning,34.06833333,-108.5841667,NM,Aug,2,16,24.99418605,3.651889535,32.74854651,0.0,0.3832570545697611,2000
2371,WNA 19,60.0,Lightning,39.8417,-119.4422,NV,Sep,0,0,21.55917001,1.996519411,30.26372155,0.0,0.488720769013788,2011
2374,77TH RD(61),1.0,Debris Burning,30.0086,-82.9029,FL,Jan,0,12,13.12711864,2.386440678,71.08474576,9.4,0.1455340921626544,2012
2378,LINDEN - 6147,1.0,Arson,32.84175,-94.92268333,TX,Jul,0,12,28.07482014,1.331414868,69.60852713,0.0,0.2531965461270626,2012
2391,FLARE,2.0,Arson,40.584779,-73.884935,NY,Feb,0,15,0.0,0.0,0.0,0.0,0.0599872303607282,1993
2407,MOSS SPRINGS,2.5,Lightning,45.29222222,-117.7013889,OR,Jul,4,9,18.76541493,2.751506722,53.770051,20.4,0.4690591870568106,2006
2436,POWERLINES,57.7,Utilities,42.8692,-113.7228,ID,Jul,4,4,22.37107776,3.584993179,40.38987688,0.0,0.429748754966933,2005
2440,INVERNESS (26),2.5,Arson,26.7213,-81.2184,FL,Oct,0,12,18.83183792,3.879739508,70.95224313,0.0,0.1333617900482322,2013
2443,REFUSED FIRE,1.0,Debris Burning,35.42,-106.4519,NM,Mar,0,15,2.351864802,4.071212121,58.61726954,18.0,0.3615440408581596,2008
2445,PRIVATE FARM RD,16.0,Debris Burning,38.78046069,-82.14759424,WV,Jul,1,0,22.65487977,2.379349364,67.45319465,48.2,0.1331469750678608,1999
2449,STILES COMPLEX,67008.0,Other,32.835556,-103.437778,NM,Mar,2,12,11.55256065,5.684097035,33.53739612,0.0,0.3340208862246991,2008
2453,FY2000-MILLER-047,0.65,Debris Burning,31.1903,-84.5752,GA,Feb,0,12,9.156384505,4.137055016000001,61.42424242,0.0,0.1595881118310549,2000
2458,LONG BRANCH,225.0,Other,31.41666667,-88.86666667,MS,Apr,0,12,13.38022599,2.526694915,61.33474576,0.0,0.1982859926749158,1996
2470,FY2001-DECATUR-053,1.85,Accidental,30.9161,-84.6333,GA,Feb,0,12,0.0,0.0,0.0,0.0,0.1603188004412272,2001
2471,FY2002-FLOYD-044,18.17,Arson,34.1216,-85.1902,GA,Nov,0,16,12.68168675,2.517487685,48.29802956,65.3,0.1630508847757403,2001
2474,CACHE,2.0,Lightning,41.0962,-109.213797,WY,Sep,4,15,20.52878598,4.140175219,38.10763454,10.0,0.3856952346079292,2007
2477,MOSS BUFF 18,2.5,Debris Burning,29.09666667,-81.84833333,FL,Feb,0,12,15.90855457,2.579763663,69.1169687,31.4,0.1368844831181266,2000
2478,BUNYARD,1.5,Arson,41.7031,-120.2078,CA,Oct,1,15,10.12991014,1.99139923,49.47389558,16.0,0.4957517338627679,2009
2488,MOSELEY MOUNTAIN FIRE,6.0,Accidental,36.15235,-81.64301666,NC,May,0,0,11.144662,3.1880652680000003,58.16893305,92.8,0.1300752216518874,2014
2492,JOHN DEERE,1.0,Lightning,45.5442,-104.0653,MT,Aug,0,15,22.96738544,5.290026954,55.08265583,48.6,0.3340057237226246,2005
2496,MACK LAKE,7.0,Arson,30.08833333,-84.62666667,FL,May,0,12,0.0,0.0,0.0,0.0,0.1609053090821584,1998
2499,EJ RANCH,60.0,Lightning,32.9117,-105.0403,NM,Jul,2,12,29.40623546,4.30283853,33.0992082,0.0,0.3494604658975202,2011
2500,S5WEST BOUINK MTN,10.0,Arson,36.4976,-84.0349,TN,Nov,0,0,12.52573018,0.7778242679999999,70.64004914,0.0,0.1512156952348884,2009
2501,OAK II,5.0,Arson,39.45583333,-122.9402778,CA,Oct,0,0,19.08039492,1.3833333330000002,53.69491525,7.0,0.5247842984025106,1996
2513,TALLULAH RIVER #3,39.0,Arson,34.93166667,-83.54861111,GA,Mar,2,16,4.689015692,1.977650975,58.41488834,0.0,0.1477987444133166,2007
2516,CARIBOU,35.0,Accidental,46.88333474,-67.93333373,ME,May,0,15,4.695138889,4.191288566,63.29259259,258.3,0.0073517908168629,1993
2521,LITTLE SAL,9.0,Lightning,39.3666,-108.584,CO,Aug,2,0,17.84,1.1,62.0,0.0,0.3802677235676819,1994
2527,NEVADA.,12.0,Utilities,38.95111111,-120.4336111,CA,Jul,0,0,13.85040984,2.454918033,40.25309491,3.3,0.4992669864124262,2003
2533,FLATIRON,35.0,Utilities,43.0166,-115.6842,ID,Jun,0,9,17.72910864,4.214668547,52.69491525,29.3,0.4493752863275981,1995
2534,LILLIAN,150.0,Arson,35.3186,-95.82,OK,Apr,0,15,17.70533209,4.483536015,59.6788252,0.0,0.2599698092643629,2006
2546,ROLLOVER CREEK,1.0,Other,35.13733333,-77.21416667,NC,Feb,0,15,4.492343032,2.356792018,71.95543672,0.0,0.0916987283048771,2011
2547,LONG POND,275.0,Debris Burning,38.38472222,-76.03805556,MD,Feb,0,0,2.4415,2.51805,72.57235142,0.0,0.0796341299560112,2008
2553,DUNN,3.0,Arson,44.2106,-99.7886,SD,Mar,0,15,1.671973828,5.912772926000001,70.56711409,13.1,0.2933771968415497,2012
2558,DUMP,10.0,Other,34.28388889,-118.4,CA,Jan,0,16,14.60596026,1.781727575,94.0,0.0,0.4811788816450115,2003
2560,OREO LANE,1.0,Debris Burning,41.11917,-75.33166999999999,PA,Apr,0,15,8.401142264,3.962305296,64.5559322,11.1,0.072255317082543,2012
2563,1058,12.0,Other,32.51423132,-88.58962174,MS,Oct,0,12,19.54368049,2.409201213,75.04316547,139.8,0.1949566726139757,2015
2569,BARE MT,33362.6,Lightning,64.1719,-156.6764,AK,Jun,59,0,13.27113134,2.298179454,58.86780105,0.0,0.8918296129342851,2015
2570,FY2002-HOUSTON-037,137.0,Debris Burning,32.4584,-83.5088,GA,Feb,0,12,10.65975733,2.621578947,69.00828402,214.7,0.1490978347079994,2002
2571,HUNSINGER,8.0,Lightning,41.13055556,-120.7888889,CA,Jul,1,15,18.81818182,2.776479076,40.03896104,0.0,0.5019279303248818,1999
2579,COYOTE,56.0,Arson,35.983867,-118.8871,CA,Jul,0,15,25.33797586,2.730965645,42.01671309,0.0,0.4850801351671605,2010
2582,LUCY BROOK,139.0,Other,44.07138889,-71.19722222,NH,Nov,1,15,4.3850446430000005,1.4055803569999998,68.43898574,76.0,0.0356885041987586,2004
2583,RUNNER,363.0,Utilities,45.2397,-100.984,SD,Aug,0,9,21.49012821,4.200518135,64.17236842,39.5,0.3044803746412796,2012
2595,OTA 144,0.6,Arson,43.2342,-116.035,ID,Jul,0,9,23.12152406,4.203609626,36.24465241,1.5,0.452834706306485,2011
2600,FY2012-GRADY-023,1.0,Debris Burning,31.05511933,-84.23353313,GA,Mar,0,12,11.26212963,0.0,0.0,0.0,0.15662377880196,2012
2613,VALDEZ FIRE,0.9,Arson,35.7331,-94.54,OK,Jan,0,15,3.386184516,1.92633287,65.58826455,0.0,0.2477483609914474,2015
2615,RIGHT FLAN,2.0,Lightning,36.4634,-105.4647,NM,Aug,0,0,20.15918958,3.397971014,44.53623188,0.0,0.351324330246219,2000
2621,A1302056,35.0,Accidental,42.0372,-96.2847,NE,Apr,0,9,3.4347826089999995,5.355706522,62.64084507,2.1,0.2610002696431774,2002
2622,3RD KENNDEY,1.0,Arson,35.080833,-87.230583,TN,Nov,0,15,0.0,0.0,0.0,0.0,0.1808828614022526,2013
2630,GREENBRIAR ESTATES  (55),5.6,Arson,30.0444,-81.5845,FL,Apr,0,12,22.70011947,3.30083632,62.70250896,76.5,0.1337704205335381,2012
2641,MINE,146.09,Other,37.62,-91.10333333,MO,Mar,1,0,1.161442441,5.167822469,66.2742616,0.0,0.2148246138522447,2005
2648,ALDRICH BRANCH #2,224.0,Arson,37.30563104,-81.80807305,WV,Nov,1,0,9.154333009,1.856377799,61.121673,0.0,0.1308915422096166,2012
2650,PARKER,1000.0,Lightning,45.46222222,-114.6616667,ID,Jul,93,9,19.75453278,1.982889201,43.11657303,4.3,0.438362147832984,2000
2657,FALKOR,0.75,Lightning,43.16222222,-122.7361111,OR,Aug,1,9,23.0875817,2.267239102,52.83751651,5.1,0.5211812627718244,2014
2659,R182,1.0,Accidental,47.8666,-95.1336,MN,May,0,15,3.761118881,3.561818182,55.85314685,0.0,0.2485999564433723,1996
2660,LEWIS,1.0,Utilities,34.346789,-116.51735,CA,Jun,0,16,19.47619048,3.94047619,37.56934307,1.0,0.4620697377070115,1998
2661,JONES LOOP 485,2.0,Debris Burning,35.369767,-88.983783,TN,Mar,0,15,5.281051478999999,3.805257393,69.39776536,117.1,0.1966685259125469,2013
2674,SCONA LODGE,30.0,Arson,35.5,-84.00833333,TN,Apr,0,15,12.52297773,3.104689332,61.88829071,102.1,0.1515651143902394,1997
2687,HASTINGS,5.0,Accidental,34.17527778,-118.0708333,CA,Jul,0,16,23.96755162,0.631710914,26.44610778,0.5,0.4779066716245292,2008
2692,FY2011-COFFEE-066,50.3,Debris Burning,31.57602318,-82.83308319,GA,Mar,0,12,13.67364991,2.199487896,65.63883677,0.0,0.1437035451993493,2011
2693,SUMMIT,1.0,Accidental,39.33777778,-122.7461111,CA,Oct,0,0,20.07402032,1.593353941,54.94899536,0.0,0.5228367871512385,1999
2705,SAND CREEK,5.0,Other,43.35412,-116.24078,ID,Oct,1,9,17.093559,1.664440263,45.02967927,0.0,0.4548693413389457,2012
2708,OLD AIRPORT 3,0.8,Accidental,48.1156,-105.1758,MT,Jun,0,15,23.0737037,0.0,0.0,0.0,0.3442128330459302,2012
2712,FY2011-CLAY-025,6.4,Lightning,31.56438218,-84.9359075,GA,Jun,0,12,25.40700219,1.052242888,59.14537445,0.0,0.1625497909299469,2011
2714,R16,13.0,Debris Burning,47.8666,-95.2003,MN,Mar,0,15,-5.627871148,4.197058824,67.83333333,0.0,0.2492237011471743,1995
2722,SHIPROCK01,140.0,Accidental,36.7833,-108.684,NM,Mar,0,0,5.1363636360000005,4.260625815,55.37225275,39.8,0.3825843052225255,2000
2725,BEN SPRINGS,1.0,Lightning,35.94444444,-106.7194444,NM,Jun,1,15,22.43883225,3.435501765,27.91456016,0.0,0.3638378079152216,2006
2736,SLADE ROAD,2.0,Debris Burning,36.25438333,-79.65645,NC,Nov,0,0,15.82464066,2.014696814,76.40782698,48.2,0.1124437138294576,2013
2739,SHOCKEY,1.0,Other,32.6167,-116.4175,CA,Jul,0,12,19.1133412,2.188193625,73.76642336,0.0,0.4622325818046497,2004
2740,RRMP415,3.0,Utilities,43.24667,-115.86529,ID,Aug,0,9,24.49207232,3.266063978,29.09331476,4.0,0.4511205267234148,1992
2749,OAK,1.0,Debris Burning,39.162477,-121.204498,CA,Feb,0,0,13.2013986,1.5869463869999998,47.35626911,0.0,0.5070632477976305,2015
2751,TP,1.0,Debris Burning,35.817833,-88.374,TN,Jun,0,15,24.11509662,2.254830918,65.72358722,29.6,0.1908338305593622,2007
2753,SABAL PALM (11),20.0,Lightning,26.0987,-81.6515,FL,Jul,0,12,27.11251758,2.579934365,76.34505391,94.4,0.1377793924607326,2014
2757,10517,446.0,Lightning,34.09183334,-94.71716665,OK,Sep,0,16,32.58811334,2.9280580510000003,44.04492053,0.0,0.250430580438274,2011
2763,KOELLING,8.0,Other,34.2814,-96.5242,OK,Jul,0,16,28.88300836,2.345682451,55.52859135,0.0,0.2672340026080035,2006
2766,30389,35.0,Arson,36.00046667,-94.75208333,OK,Mar,0,0,7.41025641,3.3738751810000003,61.1028128,0.0,0.2495691104768023,2009
2774,9.12014E+12,2.0,Accidental,31.36248939,-89.67220826,MS,Dec,0,12,11.19071926,2.536753731,67.14612512,39.2,0.2056940325908653,2014
2782,340 N. OLDENWAY,15.0,Other,46.4264,-120.3764,WA,May,0,9,15.13297491,3.192570037,44.18969849,8.8,0.4960221985945789,2007
2787,KEE FIRE,2.0,Debris Burning,35.17505,-89.36079000000001,TN,Feb,0,15,1.80130787,0.0,0.0,0.0,0.2002349380732617,2007
2788,KEELING,0.75,Debris Burning,32.298,-109.8729,AZ,May,0,12,21.37325103,4.366941015,15.88340192,1.8,0.3971566647517686,2013
2795,HENDERSON - 7111,1.0,Lightning,31.87072222,-95.57558333,TX,Aug,0,12,28.93613087,2.085206259,63.67804647,0.0,0.2599991806103778,2012
2800,MACHINE,80.1,Other,64.8086,-147.6517,AK,Apr,0,0,0.938101604,2.695187166,60.73663102,2.6,0.7897632479075836,2015
2803,BLUEJAY 97,4.0,Lightning,32.735,-110.0133333,AZ,May,2,12,0.0,0.0,0.0,0.0,0.3982318409266066,1997
2816,JOHNSONVILLE SCHOOL ROAD 2,1.0,Debris Burning,35.3032,-79.10258333,NC,Dec,0,15,11.2041415,1.80069025,75.47596717,2.9,0.1081365112883869,2012
2817,BACHELOR CREEK,1.0,Lightning,65.5039,-146.0283,AK,May,1,0,0.0,0.0,0.0,0.0,0.7719552490211021,2011
2830,WAGON WHEEL,3.0,Arson,31.08333333,-89.01,MS,Apr,1,12,13.13778409,2.525994318,61.63068182,0.0,0.1998467465801032,1996
2832,FY2014-OCONEE-001,3.8,Debris Burning,33.74891667,-83.35502778,GA,Nov,0,16,2.126356589,4.460465116,75.97286822,0.0,0.1468324532713658,2013
2833,SPLINTER,8.0,Lightning,43.2903,-102.2754,SD,Jul,0,9,24.74246988,4.267218543,59.84537815,38.6,0.3174342287015599,2001
2837,AIRPORT,15.2,Arson,33.646283000000004,-116.1289,CA,Jun,0,16,30.26413502,4.1324894510000005,15.66901408,0.0,0.4586121514983898,2013
2838,FY2013-RICHMOND-011,4.83,Debris Burning,33.34894722,-82.04959167,GA,Jan,0,16,6.058041958,2.872027972,66.90714286,22.6,0.1354615593038672,2013
2845,BALFOUR 2,2.0,Other,37.925833,-121.775,CA,Oct,0,0,21.46138614,4.327015559,0.0,0.0,0.5135403385634827,2014
2849,CRA13818841,2.0,Debris Burning,35.48665,-94.37261,AR,Mar,0,15,6.8911764710000005,3.033455882,63.88123515,0.0,0.2463356483949792,2014
2859,FY2002-BULLOCH-125,3.17,Arson,32.3378,-81.5277,GA,Mar,0,12,0.0,0.0,0.0,0.0,0.1315311836555734,2002
2860,OR-MAF-2014-14410,1.0,Lightning,44.62361111,-118.4905556,OR,Aug,2,15,18.8196875,2.127361111,0.0,0.0,0.4772547723950877,2014
2864,COTTONWD#2,3.0,Lightning,42.3499,-111.8841,ID,Jul,0,9,19.47608696,2.236956522,49.91111111,9.0,0.4116100284153994,1996
2866,JOHNNY,30.0,Lightning,36.06861111,-106.8847222,NM,Aug,28,0,23.46938776,2.281632653,46.7755102,0.0,0.3653773366528514,2000
2868,RL520,3.0,Other,47.8761,-95.0178,MN,May,0,15,4.778563015,4.964546525,62.24822695,0.0,0.247515757986378,2002
2872,FY2012-BLECKLEY-008,3.8,Debris Burning,32.470553499999994,-83.34063456,GA,Aug,0,12,28.46706731,2.398317308,68.94325347,241.1,0.147585409241282,2011
2878,ROLLER COASTER,479.0,Debris Burning,35.2078,-96.4908,OK,Feb,3,15,4.354913833,4.8211923610000005,62.99589322,0.0,0.266333999768936,2008
2887,SALT CREEK,4.0,Utilities,43.41228,-106.28533,WY,Sep,0,9,21.47838828,3.945543346000001,45.96393035,33.5,0.3561662685271467,2011
2902,FY2001-MILLER-032,2.71,Debris Burning,31.139,-84.8745,GA,Jan,0,12,3.846715328,4.658778626,64.70085470000001,0.0,0.1623169353936939,2001
2905,TWIN PEAKS,10204.0,Lightning,38.7514,-112.7089,UT,Jul,16,0,27.27083333,3.122395833,30.69270833,0.0,0.4213640042528042,2006
2924,TUBE,240.0,Lightning,34.94547,-108.11457,NM,Jul,4,16,27.84736111,5.333888889,72.95833333,0.0,0.3780876488728162,1994
2925,FIXICO,40.0,Other,34.9208,-96.5903,OK,Oct,0,16,18.58705469,2.872777499,62.46609744,0.0,0.2674476145360902,2005
2929,MT. MISERY,0.7,Other,34.28125,-78.04976667,NC,Feb,0,16,7.470126582000001,3.257179054,73.67309547,262.2,0.0995447888743477,2011
2932,INC 194,0.7,Lightning,44.4952778,-122.181389,OR,Aug,0,15,21.01762295,2.771584699,41.02462379999999,0.0,0.5150447999739558,2010
2934,COORS FIRE,7.5,Arson,34.937,-106.7025,NM,Oct,1,16,13.56730769,3.105796316,47.23478261,0.0,0.3642854657094332,2006
2948,RODGERS CREEK,3.2,Debris Burning,47.0227,-112.1549,MT,Apr,0,15,-2.599032882,4.921373308,66.91790307,29.4,0.4129644125825178,2009
2951,PRAIRIE,1.0,Debris Burning,33.1351,-111.9707,AZ,Jul,0,16,31.84388186,2.625879044,19.04078762,0.0,0.4173374576191782,1993
2960,BROCKTON,1.0,Accidental,48.1461,-104.9175,MT,Mar,0,15,3.374193548,2.4021505380000003,70.61363636,0.0,0.3417033268036198,1992
2966,SCISSORS,103.0,Arson,33.33333333,-86.09027778,AL,Jul,0,16,26.1411339,1.87764277,70.75949367,37.6,0.1716957316293828,2000
2974,CLARE 12,1.7,Other,43.9817,-84.79523,MI,May,0,9,7.857336449,3.289205607,69.96448598,49.5,0.1547394993374229,2013
2975,FY2013-MACON-014,4.14,Debris Burning,32.34950278,-83.94634444,GA,Jan,0,12,3.671428571,1.845,72.82258065,0.0,0.1530928470111243,2013
2978,IRONWOOD DR. FIRE,2.5,Other,35.49425,-78.812283,NC,Feb,0,15,4.926443203,1.82160149,59.67556253,92.1,0.1054692732670998,2015
2979,BLACKHAWK,144.0,Lightning,30.46361111,-95.66805556,TX,Jul,0,12,28.97331461,2.720365169,68.61791045,6.7,0.2619310917434247,2000
2984,WHISKEY SP,31.5,Lightning,42.8449,-117.0432,OR,Aug,1,4,26.58890469,3.439316239,30.27492877,3.4,0.4631476772596601,2003
2985,TH1814,7.0,Arson,47.9917,-99.0421,ND,Apr,0,15,0.999165508,6.0143254520000005,73.80667594,38.3,0.285390310140035,1995
2986,FIVE POINT,160.0,Lightning,41.0827,-117.2846,NV,Jul,0,15,21.72124138,3.401793103,37.55862069,9.2,0.4662616743151078,1997
2987,TIRE,22.0,Other,33.61805556,-82.10388889,SC,Mar,0,16,15.18289157,2.986956522,54.5729927,85.4,0.1357624602302314,2007
2994,HORN,30.0,Lightning,43.63141,-102.56404,SD,Sep,0,9,24.7649919,4.657536467,47.07491857,8.7,0.3200942377780813,2000
2997,HOLY,12.0,Other,33.3651,-110.4357,AZ,Jul,1,16,29.21089385,3.973743017,17.30307263,0.8,0.4019674177842942,2004
3007,MILL DAM 2,1.0,Arson,29.17333333,-81.85166667,FL,Jun,0,12,26.79525223,2.357355126,65.05794948,0.0,0.1368506125691879,1998
3009,FIRST BOX,1.0,Lightning,37.34277778,-107.32916670000002,CO,Aug,6,0,23.40669241,3.124581725,35.64993565,17.8,0.3689994994729115,2003
3010,KEENEY,7.0,Lightning,43.9191,-117.1518,OR,Aug,1,9,25.87106447,2.345277361,49.73723724,18.6,0.4638900577673588,1998
3012,LAKE MOUNT,1.0,Lightning,42.341,-110.4549,WY,Sep,1,9,46.6,0.0,0.0,0.0,0.3974509606544418,1996
3019,LOOKOUT,3.6,Utilities,37.1241667,-101.909444,KS,Mar,0,0,0.8129919390000001,3.812672046,68.37615572,0.0,0.3166506957191497,2010
3022,DUMP 2,2.0,Debris Burning,48.3032,-118.2094,WA,Jul,0,15,17.92181818,2.2027272730000003,62.77669903,0.0,0.4735734041705808,1992
3027,FY2000-HALL-023,4.13,Arson,34.2926,-83.7851,GA,Feb,0,16,4.537463977,3.638616715,60.51386623,55.8,0.1503227399154918,2000
3028,FY2013-BALDWIN-008,1.0,Accidental,33.138225,-83.20430556,GA,Oct,0,16,19.90306627,0.485113749,64.3255814,0.0,0.1458994838717999,2012
3030,DEEP CREEK,1.0,Lightning,46.5053,-106.2939,MT,Aug,0,15,22.38507853,4.218586387,49.32283465,16.8,0.3553940760945291,2005
3036,PIPKIN HILL,5.0,Arson,34.60666667,-89.205,MS,Feb,0,16,3.901388889,5.46125,64.82981716,87.6,0.1991667198383648,1996
3038,25,1.0,Accidental,37.46,-97.2,KS,Jan,0,0,-6.775625,6.021875,69.86875,0.0,0.2717074435167825,2015
3044,LANCASTER,19.0,Debris Burning,31.14694444,-94.88,TX,Feb,1,12,11.079194,3.216150235,65.51106739,208.1,0.2540325034678032,2006
3047,NEW COLONY DR,0.7,Other,36.49585,-76.0628,NC,Jun,0,0,24.38171078,2.091351607,66.32797732,21.9,0.0808665860027455,2011
3050,FORNET,9.0,Arson,33.9,-116.73,CA,Jun,0,16,22.56791667,4.334583333,45.31313131,0.0,0.4645097152652815,1996
3060,COLD SPRINGS RANCH #470,1.0,Utilities,44.30167,-121.59028,OR,Aug,0,15,20.69193548,2.852845528,44.07859079,9.4,0.5090238817821897,2015
3065,RL523,1.0,Debris Burning,47.8777,-94.9308,MN,Apr,0,15,3.232038835,4.286692569,61.95923379,4.1,0.2467024822680614,2003
3084,COLVILLE,3.0,Lightning,45.105,-101.9321,SD,Jul,0,9,17.02295552,4.912356322,67.98214286,97.6,0.3135906890987856,2000
3085,EXCHANGE RD. 1,1.0,Debris Burning,35.452617,-88.31517,TN,Mar,0,15,1.760643016,2.85,71.54767184,35.3,0.1905173941725153,2010
3090,ROBIN CREEK 2,1.0,Lightning,48.99,-114.8333333,MT,Sep,1,16,14.44242804,1.759198999,63.69902913,19.2,0.4393875194208874,1995
3097,THREADGILL,33.0,Arson,35.624333,-88.50433000000001,TN,Feb,0,15,0.977482679,3.851732102,65.40184758,30.0,0.1921378829436655,2007
3107,SLIDE CREEK,1430.0,Lightning,46.7175,-115.1875,ID,Aug,50,15,21.96002786,0.971169916,54.60724234,7.1,0.4433438282266588,2006
3109,F.D.-2,1.0,Arson,35.0647,-98.6386,OK,Jul,1,15,30.98538566,8.035772358,38.59214092,10.9,0.2866872250763783,2011
3116,BREWSTER,5.0,Lightning,45.26,-106.37166670000002,MT,Jul,1,9,19.37871148,2.756363636,57.50580431,32.6,0.3564559775642428,1996
3118,HONOR,5.0,Accidental,43.2,-102.7852,SD,Jul,0,9,26.96937213,4.82143951,43.29520866,0.0,0.3223628385080368,2002
3121,TRUMP ISLAND,0.75,Other,48.5046,-122.8365,WA,Jul,1,15,12.41666667,1.658333333,0.0,0.0,0.5209016366827122,2013
3129,GILBERT'S FIRE,15.0,Arson,35.02591666,-79.35211666,NC,Feb,0,15,3.878420569,3.463996317,74.99906367,82.7,0.1105027516581151,2010
3162,Q2,58.9,Debris Burning,38.38206513,-76.07179884,MD,Feb,0,0,0.919308357,2.9085014410000003,63.87367915,0.0,0.0799285454145108,2014
3165,FY2015-GWINNETT-002,1.06,Debris Burning,34.05221111,-83.98704722,GA,Feb,0,16,5.837528604,2.612183908,48.85681293,0.0,0.1522887220190518,2015
3173,CEDAR SOUTH,851.0,Other,42.1981,-114.8331,ID,Jul,1,9,24.95858311,3.183242507,37.12328767,0.8,0.441113707741851,2007
3183,FY2002-SUMTER-037,0.95,Debris Burning,32.0301,-84.1971,GA,Apr,0,12,17.54736842,3.034036939,57.58544304,27.9,0.1555713286908513,2002
3185,C-138 SET2 (57),1.8,Arson,30.9516,-86.8992,FL,Jan,0,12,0.573464658,3.645833333,0.0,0.0,0.1807387094920323,2012
3188,GARRISON RIDGE,45.3,Other,36.8469444,-93.04,MO,Apr,0,0,12.9576523,2.553268945,59.36807818,0.0,0.2331484190965898,2010
3194,CUBE,1.5,Arson,33.3834,-110.434,AZ,Jun,0,16,23.12628516,2.035645005,30.07371484,0.0,0.40193816372847,1993
3202,8060,1.7,Debris Burning,30.896,-94.3745,TX,Aug,0,12,29.96888063,1.454946586,69.48397585,0.0,0.2495061622430248,2015
3203,ZION RIDGE,4.0,Debris Burning,38.5419,-83.0942,KY,Mar,0,0,3.34708063,1.6332693230000002,66.09462486,200.2,0.1417035609657304,2015
3205,FIRE TOWER,12.0,Debris Burning,37.24060059,-84.83075714,KY,Apr,0,0,4.915230554,2.780158361,65.324,0.0,0.1579453295582165,2013
3213,SOUTH PINE,4.0,Lightning,39.90024,-112.5625,UT,Aug,2,0,0.0,0.0,0.0,0.0,0.4193624213521405,1999
3214,MAHOGANYMT,5.0,Lightning,41.62833333,-119.24,NV,Jul,0,15,19.03818953,4.376680672,35.34056399,0.3,0.4859022292604669,2001
3215,WEST SPRING CREEK,0.8,Lightning,45.37666667,-118.4783333,OR,Sep,0,9,17.30533537,2.6432926830000003,44.14176829,0.0,0.4769233016016945,1995
3216,FY2014-TWIGGS-025,3.7,Accidental,32.603,-83.37952778,GA,Feb,0,12,6.180042164,2.84111033,75.00765957,97.5,0.147839125874946,2014
3224,DEADMAN,5.8,Lightning,33.44733,-105.14394,NM,Jun,0,16,20.04524254,5.001632463,25.83167849,0.0,0.3500974140260777,2012
3227,973,3.0,Other,31.49546789,-89.71475382,MS,Oct,0,12,21.68875408,2.248877456,64.42428941,37.9,0.2059842810234158,2015
3233,SLOANS RIDGE,10137.0,Lightning,44.90027778,-118.2938889,OR,Jul,26,15,21.35648855,2.709923664,41.45610687,0.0,0.4751780002080072,1996
3234,KILPATRICK,15.0,Other,44.8231,-113.9858,ID,Aug,1,15,22.14744186,1.538808748,36.97578016,0.0,0.4317632010985148,2006
3245,LOOKOUT,1475.2,Debris Burning,36.4197,-96.408,OK,Mar,6,0,1.569197861,1.956791444,72.15248619,17.5,0.2648344293419944,2010
3246,FY2013-WEBSTER-014,5.5,Debris Burning,32.08247222,-84.59413889,GA,Mar,0,12,8.848015489,2.8811713460000004,60.72881356,0.0,0.1590971279465882,2013
3252,RED BUG ROAD,1.0,Other,31.30611111,-94.26472222,TX,Aug,0,12,28.16518692,1.330514019,71.70420561,0.0,0.2481712709039438,2013
3254,DRYWELL,1.0,Other,33.1851,-111.8676,AZ,Jun,0,16,25.6,5.814285714,25.0,0.0,0.4162787222874999,1995
3259,64QBCPER00,1.0,Other,39.8136,-104.9017,CO,Jul,0,0,20.07559682,3.758300133,43.45576408,9.9,0.3441396423983081,2000
3261,TEN HORSE,25.0,Utilities,43.49749,-116.2538,ID,Oct,0,9,3.0,6.2,87.0,0.0,0.4549533416806084,1999
3273,CHOCTAW #6,2.0,Arson,32.7797,-89.2686,MS,Oct,0,12,20.62016129,2.240625,76.42827869,139.8,0.2009711440279549,2015
3274,WHAKATNA C,23.0,Lightning,64.9494,-156.8858,AK,Jun,2,0,9.422176022,2.46964657,54.36174636,0.0,0.894553659317991,1997
3277,A1305034,2.0,Arson,42.1119,-96.3742,NE,Mar,0,9,-0.303310613,4.300292113,81.56329114,0.0,0.2618126800631317,2005
3278,FOX,1.0,Other,33.0278,-104.4406,NM,Jun,0,16,26.28272251,5.518895764,29.37493976,0.0,0.3435716237804234,2013
3284,WATUSI,5.0,Lightning,39.9814,-108.1723,CO,Jul,3,0,20.53430657,3.402730375,43.57948718,27.2,0.3759448010040005,2001
3289,A1303062,1.0,Other,42.1119,-96.3447,NE,Oct,0,9,12.71475029,3.698722416,64.9623086,35.2,0.2615355846885245,2003
3292,700,4.0,Arson,34.4834,-94.6836,OK,Dec,0,16,0.0,0.0,0.0,0.0,0.2498632598103067,1995
3293,LAKESIDE DR/ GLADE SPRINGS,3.0,Arson,37.73666005,-81.08548370000001,WV,Apr,0,0,14.68892276,2.667479675,62.53658537,101.8,0.1242488321173009,2012
3294,TH1710,1.0,Arson,47.9783,-98.0268,ND,Jun,0,15,16.23427041,4.510307898,63.40971168,19.8,0.2757788580925486,2004
3302,FY2011-JACKSON-016,3.49,Arson,34.0656217,-83.58125389,GA,Mar,0,16,0.0,0.0,0.0,0.0,0.1486461446059925,2011
3311,TIJUANA JOHN,746.5,Lightning,41.7781,-114.5408,NV,Aug,5,15,24.10418919,3.657916103,34.37262873,1.6,0.4383410673175192,2011
3315,BARONA,2.0,Debris Burning,33.0,-116.8009,CA,Aug,0,12,25.77803204,3.128604119,68.0,0.0,0.4658361240662196,1997
3322,FY2011-JOHNSON-065,14.44,Debris Burning,32.71519658,-82.77164016,GA,Feb,0,12,7.34481154,1.966137319,61.91959799,0.0,0.1423315270707259,2011
3323,BEAR 2,280.0,Accidental,31.37666667,-110.3663889,AZ,Apr,1,12,15.07661623,4.220632737,23.00275482,0.0,0.4027049853857354,2008
3325,THOMAS CREEK PRESERVE (16),18.1,Lightning,30.4841,-81.7823,FL,Aug,0,12,21.51039592,2.7005555560000003,0.0,0.0,0.1351803338505921,2011
3333,TOWNE PARK (53),7.0,Other,27.97,-82.0192,FL,Mar,0,12,15.03140496,2.599419569,71.06929825,0.0,0.1393602556210078,2013
3339,BIRTHDAY,0.9,Utilities,45.3253,-101.9679,SD,Nov,0,9,2.969803371,5.088293371000001,70.93865031,8.5,0.3138749611342699,2012
3348,FY2014-FANNIN-015,1.72,Debris Burning,34.89066667,-84.19397222,GA,Feb,0,16,-0.2431436569999999,1.425419776,73.2666987,77.4,0.1536054447067232,2014
3349,BEAR,1.0,Arson,40.701981,-122.269539,CA,May,0,15,15.72540416,2.96867052,51.14519906,58.0,0.5173137133615675,2002
3353,FY2015-BARROW-010,3.7,Debris Burning,33.97994444,-83.68533333,GA,Apr,0,16,14.24418605,2.377209302,62.59987783,0.0,0.149633962070701,2015
3355,GROUSE,17.0,Lightning,33.311111100000005,-108.715278,NM,Jun,1,16,20.41397849,4.951057727,19.5266229,0.0,0.3850516689075471,2010
3365,FY2011-COFFEE-095,0.6,Lightning,31.39929754,-82.82785119,GA,Jun,0,12,28.78713111,1.84039671,58.61923264,0.0,0.1437887390079171,2011
3389,TRACT 84,76.0,Debris Burning,44.8572,-108.3173,WY,Mar,2,15,4.18507891,3.394404591,53.29741379,5.9,0.3755864289297854,2004
3391,BUCKHOLZ,4.6,Lightning,26.0517,-81.115,FL,Jul,0,12,28.13986014,3.027692308,74.41101695,35.1,0.1330640113414363,2004
3394,204,2.5,Lightning,43.9997,-120.9572,OR,Jun,30,9,12.5521978,3.093939394,49.33795014,1.8,0.5026195928461057,2007
3398,HIGHWAY E FIRE,140.0,Other,38.038611,-93.823056,MO,Feb,0,0,-1.568445476,4.236933798,76.40745672,15.6,0.2397819418639393,2004
3402,BRONCO,105.0,Accidental,32.70166667,-116.5866667,CA,Jun,1,12,0.0,0.0,0.0,0.0,0.4638804131326439,1997
3404,SEWER SMOKE,2.11,Debris Burning,40.89361,-78.26583000000001,PA,Apr,0,15,14.54644056,2.011111111,0.0,0.0,0.0979090035800873,2015
3408,WOOD PILE,5.0,Debris Burning,26.22416667,-98.35916667,TX,May,1,12,25.74869606,4.809530583,68.18026565,0.0,0.2908982074852611,2008
3413,MANNSCHRIE,1.0,Lightning,35.1001,-98.5503,OK,Apr,0,15,13.65477889,6.199857347000001,63.10647482,10.7,0.2858289594201806,1998
3419,LAKES,6.0,Lightning,36.42,-112.2136111,AZ,May,3,0,11.357223,3.937073864,33.95732575,1.3,0.4176778701775396,2014
3420,M TENT,0.6,Debris Burning,44.0728,-99.4418,SD,Aug,0,15,19.34576976,3.394993046,73.47122302,0.0,0.2901223736540577,1994
3421,RAILROAD,30.0,Utilities,33.65,-85.64083333,AL,Nov,18,16,14.91404073,2.041900648,74.73110285,29.9,0.1674242942311068,1999
3423,FY2012-CRISP-027,2.36,Debris Burning,31.85747535,-83.92978538,GA,Mar,0,12,14.35025617,2.902980904,70.60094731,0.0,0.1533010606276772,2012
3424,CASTLE RCK,1.0,Lightning,40.2999,-112.7175,UT,Sep,0,14,22.90564103,3.327350427,46.87008547,0.0,0.4207280571864402,1995
3432,FY2015-LOWNDES-003,1.0,Debris Burning,30.95571389,-83.36638889,GA,Aug,0,12,26.13412844,2.22146789,78.70091027,71.8,0.1489340989957752,2014
3435,PERKINS,20.0,Lightning,41.75833333,-123.4638889,CA,Aug,2,15,0.0,0.0,0.0,0.0,0.5292062963215549,2004
3439,PEABODY,1.1,Debris Burning,37.2136,-108.6776,CO,Jul,0,0,22.55451505,2.995637584,22.5915493,0.0,0.3822830090299611,1995
3444,WILDCAT TRAIL,2.0,Accidental,35.477517,-85.10378299999999,TN,Sep,2,15,24.04548353,1.372075055,74.79580574,66.0,0.1614176924138124,2010
3446,FY2013-BROOKS-027,4.7,Debris Burning,30.88577222,-83.448,GA,Mar,0,12,13.38599182,2.005725971,68.8803681,18.1,0.1497174045432685,2013
3447,GRAY,0.8,Arson,39.31111111,-121.8077778,CA,Jun,0,0,23.81096681,4.12515625,43.2828125,0.0,0.5131879097732039,2001
3465,CLEAR FORK,904.0,Arson,37.95486434,-81.46703892,WV,Mar,3,0,6.327586207,3.50130719,60.79271071,61.7,0.1275177411073145,2000
3472,ALTHOUSE,10.7,Other,42.06222222,-123.5138889,OR,May,1,9,4.063410596000001,3.427683135,71.30309989,7.7,0.5296068714280906,2002
3476,FORBES TRAIL (58),2.0,Lightning,27.1064,-82.3314,FL,Sep,0,12,0.0,0.0,0.0,0.0,0.1429017116358497,2014
3487,HUNGRY,809.0,Lightning,36.565,-113.9825,AZ,Jul,3,0,32.18470907,3.816102842,17.69553451,3.6,0.4352422874879502,2006
3491,1262,2.0,Debris Burning,39.001211,-83.08103299999999,OH,May,0,0,16.87640449,0.759212377,69.18251534,5.8,0.1413598533024078,2015
3493,FY2012-BUTTS-007,1.5,Debris Burning,33.20020374,-83.83547553,GA,Jan,0,16,12.15037594,2.529323308,73.85992218,0.0,0.1515030157696575,2012
3509,THOMAS,0.7,Accidental,41.569583,-120.408417,CA,Sep,0,15,18.21822985,2.384676354,46.13129973,19.6,0.4978560054583598,2013
3511,868,60.0,Other,31.32979703,-90.48136762,MS,Oct,0,12,22.9617207,2.327067669,70.49024707,12.0,0.2131418750115141,2015
3512,VALLEY,10.0,Arson,43.5311,-100.7372,SD,Jul,0,9,24.32387097,5.361032258,65.65806452,17.9,0.3026302640924079,2005
3516,NE300013A,1.0,Arson,35.725,-94.5708,OK,Jan,0,15,3.435164835,2.184249084,73.13891362,0.0,0.248040577215298,2014
3517,LARABEE /,1.5,Accidental,46.43166667,-112.4416667,MT,Aug,1,9,18.61798658,3.697583893,48.03364738,6.9,0.4159444196244011,1995
3519,LITTLE CANE CREEK FIRE,5.0,Debris Burning,36.69131,-84.16338,KY,Nov,0,0,11.22443182,1.05769962,73.58744916,0.0,0.1522575467045883,2011
3521,VIRGINIA,10.0,Arson,33.19444444,-86.14861111,AL,Mar,0,16,13.42324766,2.620754717,68.75161708,83.4,0.1723178781889791,2000
3528,POWER,517.0,Arson,35.45,-118.78166670000002,CA,May,0,15,19.15492154,3.670613409,48.95702006,0.0,0.4843268647967924,1993
3529,RD07-09,1448.5,Accidental,34.43723,-85.58283,AL,Dec,3,16,9.968959276,2.2346994540000003,73.15448659,130.7,0.1663839058388994,2006
3531,KORB 1 FIRE,33.0,Debris Burning,30.19471667,-96.85716667,TX,Jun,0,12,27.33148235,2.9676705880000003,64.99323998,0.0,0.2733079748304026,2013
3537,WALKER,86.1,Utilities,45.8472,-100.6747,SD,Mar,0,15,-4.996355353,4.695671982,64.98974943,4.9,0.3013712319706412,2015
3538,BIG BRANCH,1.0,Debris Burning,37.135,-83.3199,KY,Nov,0,0,12.00141176,0.0,0.0,0.0,0.1444584846457326,2015
3542,10303,6.0,Arson,34.45388889,-95.13083333,OK,Nov,0,16,16.5093985,3.110291353,62.19076778,0.0,0.2540604655887317,2012
3543,FY2014-LUMPKIN-020,2.1,Debris Burning,34.60486667,-84.06579167,GA,Mar,0,16,6.018290441,3.560533579,68.15233645,77.0,0.1526368614390809,2014
3544,COUCH,4.0,Arson,42.2347,-96.435,NE,Apr,0,9,8.049976712000001,5.030228225,58.37447601,19.5,0.2623379794324325,2015
3547,RODEO,1.0,Lightning,35.97833333,-118.17166670000002,CA,Aug,1,15,33.97637795,2.8652631580000003,0.0,0.0,0.4778104356328954,1996
3548,WOODS,1.0,Other,40.87845,-121.674633,CA,Aug,0,15,27.57622685,0.0,0.0,0.0,0.5111201623081947,2012
3549,SELLECK,5.0,Utilities,42.7269,-113.1317,ID,Sep,1,4,18.77900552,2.716574586,50.62430939,10.7,0.4238949467153039,2000
3551,POSEY HOLLOW 2,1.7,Arson,34.64305556,-94.13333333,AR,Apr,0,16,13.73547187,2.734402603,57.35554172,0.0,0.2446299736578447,2013
3554,ALDER,1.4,Debris Burning,35.84111111,-121.4008333,CA,Feb,0,15,11.89320816,0.0,0.0,0.0,0.5108602533450031,2012
3555,CRUMB HOLLOW,10.0,Arson,35.9075,-83.13722222,TN,Oct,0,15,12.99447341,3.1,73.95351759,95.4,0.1435267738936529,2001
3566,ORCHARD ADDITION,0.8,Debris Burning,37.40585212,-80.80637502,WV,Feb,0,0,2.550704225,3.023587571,62.27522936,0.0,0.1219537973502113,2001
3576,E WILLIAMS,269.5,Other,45.1183,-101.8446,SD,Sep,0,9,17.94147583,4.430407125,56.53350854,18.8,0.3127483252388527,2005
3606,SIXTEEN BOXES,2.92,Debris Burning,40.78583,-78.40139,PA,Apr,0,15,1.7947322209999998,2.939823789,75.01880036,63.4,0.0991424443067305,2015
3610,CORPORATION 98,1.0,Lightning,41.13055556,-120.1975,CA,Aug,1,15,21.76699029,1.460194175,41.32038835,0.0,0.4958755001104074,1998
3612,RL 128,1.5,Accidental,48.0142,-94.8217,MN,May,0,15,3.271028037,3.115801777,69.34494774,0.0,0.245659790596266,2013
3618,REICHE,5.0,Other,44.398667,-71.010778,ME,May,0,15,3.653333333,5.134384384,75.07537688,0.0,0.0340025546044076,2013
3619,ONEIDA FARMS,0.8,Arson,45.86357,-89.16507,WI,Apr,0,15,7.351224105,3.242655367,62.01857585,0.0,0.1938340888942316,2012
3620,RED TAIL,1.0,Accidental,46.1728,-100.6606,ND,Jun,0,9,17.68138651,4.4012345680000005,66.78792038,0.0,0.3011585282137055,2013
3631,ERSOLE (38),1.0,Lightning,29.2943,-82.6829,FL,Jun,0,12,25.31655726,1.642951059,69.94156318,0.0,0.1441503722025656,2011
3641,DUMP,2.0,Arson,35.09083333,-84.38166667,TN,Feb,0,15,4.84010989,1.262616822,70.09643255,0.0,0.1551645727572439,2005
3643,HORSE CREEK,1.9,Lightning,37.86,-111.8613889,UT,Jun,2,0,13.24207161,4.111508951,38.51023018,4.8,0.4133861372192515,2006
3648,MIESTER,6.7,Other,35.2333,-96.2417,OK,Feb,0,15,11.19924812,3.792528195,52.76149008,0.0,0.2639784193870458,2006
3663,D-5 SPRING,1.0,Arson,33.8434,-110.0923,AZ,May,0,16,19.27683616,6.427118644,22.26553672,0.0,0.3982537942344575,2003
3666,UNKNOWN,20.0,Debris Burning,37.9824,-103.7482,CO,Nov,0,0,8.764071856000001,4.01822542,60.53975904,19.4,0.3338779187188432,2013
3670,FLOW THOMAS FIRE,2.5,Other,35.3454,-79.05685,NC,Feb,0,15,8.024874624,2.6053159480000003,66.37089716,106.7,0.1077086347549998,2011
3671,THORNBUTTE,8.0,Lightning,47.85,-108.7007,MT,Aug,1,15,19.58674189,3.95303244,35.82228491,17.8,0.3786676617633848,1996
3679,FY2011-CARROLL-024,3.5,Arson,33.70930194,-84.93987083,GA,Feb,0,16,4.251741756,2.141523456,67.51047277,0.0,0.1610708395260105,2011
3709,PATRICIA L DANIEL,2.0,Debris Burning,35.013717,-87.69123,TN,Feb,0,15,6.047318236000001,3.3533969010000004,60.78784267,24.6,0.1851086228980245,2009
3710,FY2011-MCINTOSH-081,1.5,Arson,31.552444800000004,-81.40381773,GA,Jun,0,12,25.3827796,2.595414132,67.38698459999999,0.0,0.1310053630159002,2011
3721,7.92014E+12,1.0,Accidental,32.59783425,-89.5746697,MS,Jan,0,12,-10.22460733,3.985863874,79.57591623,0.0,0.2039001526674393,2014
3723,162 CAR,1.0,Arson,32.71388889,-93.28361111,LA,Oct,0,12,18.21923077,3.113441654,69.72727273,90.2,0.2380192064074822,2000
3728,WEAVER ROAD,1.5,Debris Burning,43.1336,-123.8669,OR,May,1,9,12.91435583,1.556932515,67.68866750000001,48.5,0.5328744686153306,2009
3735,HOUND,1.5,Other,35.07166667,-111.6116667,AZ,Nov,0,15,6.936441717999999,3.2807361960000003,56.43781726,29.0,0.4125034330276815,1997
3736,MEADOW FORK,2.0,Accidental,37.96893361,-81.8843037,WV,Mar,0,0,0.5983455879999999,2.550919118,67.31470588,159.9,0.1312162478163396,2014
3739,LOWE,17.0,Other,31.21083333,-93.94944444,TX,Jan,0,12,6.101635514,2.79182243,76.88758782,0.0,0.2453064560747511,2013
3740,STAR,16761.0,Other,39.05,-120.5186111,CA,Aug,0,0,20.81997283,1.985831063,31.29564033,0.0,0.5000889543272802,2001
3747,MOOSE,2.0,Lightning,44.26416667,-111.1916667,ID,Aug,1,15,18.44871795,2.169230769,47.20512821,8.4,0.4040998463454406,2003
3750,RL122,1.3,Debris Burning,47.8677,-94.9111,MN,Apr,0,15,1.967605634,4.425774648,61.37183099,0.0,0.2465201775841177,1999
3751,STATE GAME LANDS,11.0,Arson,41.26333,-75.68028000000001,PA,Apr,0,15,9.914605735,2.9625,59.88827331,124.4,0.0752176268994158,2012
3763,BEAVER CREEK #7,1.0,Arson,41.1004,-123.7126,CA,Jul,0,15,13.321529,2.307460036,84.22816901,2.1,0.5320414541604193,2007
3767,SCHRIENER,7.0,Lightning,44.89638889,-122.0186111,OR,Aug,7,15,19.32302405,1.5170675830000002,69.05868815,27.0,0.5132551309949456,2008
3770,MAIN,4.0,Debris Burning,47.9908,-108.706,MT,Apr,0,15,1.581768559,4.171741512,55.77437021,5.6,0.3786953089610221,2008
3775,L H DITCH,1.0,Arson,43.0033,-108.4804,WY,Mar,0,9,0.027421237,4.045794393,56.80399061,5.1,0.3777662101377546,2006
3776,MOOSE TWO,2.2,Lightning,46.12277778,-114.9005556,ID,Jul,2,9,15.93486111,0.663649025,69.86490251,62.6,0.4405958955997278,2014
3780,HECK # 9,3.5,Arson,41.0267,-123.6503,CA,Jun,1,15,11.6820172,2.456470588,89.84757506,4.1,0.531427331086421,2015
3783,HILLSIDE LANE,4.0,Debris Burning,35.335,-79.175,NC,Feb,0,15,6.946831364,1.873469388,66.24520256,0.0,0.1087537757527128,2012
3784,HANG DOG,1.0,Lightning,38.375,-109.0983333,UT,Jul,0,0,22.64932845,3.421245421,42.83807169,25.1,0.385807392089426,2006
3785,SAW 2,156.0,Utilities,31.19611111,-95.35111111,TX,Apr,6,12,14.81370249,0.0,0.0,0.0,0.2584000229688004,2009
3791,FISHER VALLEY ROAD FIRE 2,3.0,Arson,36.590583,-82.970733,TN,Apr,0,0,13.23726115,1.81141189,58.04065041,0.0,0.1416438003063824,2015
3793,DUSTDEVIL,1.0,Other,33.2834,-112.179,AZ,Jun,0,16,28.68041379,2.963034483,22.61655172,0.0,0.4193063726746284,1998
3796,HOUSE ROAD,6.0,Debris Burning,48.8179,-118.1637,WA,Apr,152,15,8.79620915,2.999736842,61.19894598,23.8,0.4730316020888525,2015
3798,ADAMS,1040.0,Lightning,32.042778000000006,-110.119167,AZ,Jun,4,12,25.5487782,4.658043274,18.40639699,7.9,0.3997712907155639,2008
3807,650 FIRE,1.0,Debris Burning,38.5838889,-82.6994444,OH,Oct,1,0,17.76858639,1.944924978,71.59754948,156.6,0.1381598611006547,2010
3816,GRIZZLY RIDGE,1.5,Debris Burning,48.48111111,-114.0327778,MT,Jul,1,15,14.90453431,2.261349693,60.78132992,15.8,0.4314373131787832,2007
3819,FIELDS,1.0,Accidental,31.9051,-111.8596,AZ,Aug,0,12,31.59300874,4.000873908,41.35278859,33.1,0.4171071993722484,2003
3824,E 22ND ST / SAMPSON ST,1.0,Other,39.1572,-121.5661,CA,Sep,0,0,24.59133965,2.813396482,51.41677943,0.0,0.5107777488454033,2013
3839,SHAVER RD,10.0,Arson,34.78416667,-76.87138889,NC,Sep,0,16,18.81902061,2.530972222,0.0,0.0,0.0889305642528375,2011
3843,NORTH CASH CREEK,38.9,Other,46.42083333,-103.835,ND,Jul,0,9,19.70606061,4.703030303,51.31884058,11.2,0.3315703366898044,2008
3845,UPPER KINKAID,0.8,Lightning,48.30716,-118.87737,WA,Jul,2,15,24.98434211,3.732539683,35.50132275,11.1,0.4803635551782907,2014
3851,LIVINGSTON - 7,4.0,Utilities,30.41752778,-95.47122222,TX,Jan,0,12,15.07924528,3.06163522,78.40210526,26.3,0.2601237119455923,2009
3852,FY2011-CHATTOOGA-064,49.0,Arson,34.45410528,-85.44846805,GA,Mar,1,16,-12.04729104,2.70875,0.0,0.0,0.1651617685404875,2011
3853,RL240,2.0,Other,47.8758,-94.9069,MN,Apr,0,15,0.560734463,4.685875706,64.17167382,0.0,0.2464795205863936,2002
3869,WHITES LAKE 1,1.0,Utilities,36.120833000000005,-89.56836700000001,TN,Oct,0,0,16.90804598,2.682017773,59.87506534,0.0,0.2015662495344665,2012
3872,LEGACY (53) **,50.0,Arson,27.661,-81.6623,FL,Mar,0,12,19.56985871,3.22033543,66.81714286,0.0,0.1364586099290843,2012
3876,BUNKER HILL HGTS,12.0,Accidental,39.31934793,-78.0250247,WV,Nov,0,0,14.03375527,4.121869489,56.38829787,0.0,0.0965017480273884,2001
3878,HEADSET,1.0,Utilities,35.3873,-96.8315,OK,Aug,0,15,33.31896152,3.585489105,43.64673157,0.0,0.2694276942931866,2011
3881,RODEO CRK,5542.0,Lightning,40.908,-116.4926,NV,Aug,3,15,30.07741935,4.325324675,16.64285714,0.0,0.4583281089891782,2001
3883,SANDDUNE 1,5.0,Lightning,39.6333,-112.3341,UT,Jul,0,0,20.72661871,3.796402878,42.11510791,0.0,0.4172111170871266,1995
3887,POINTSPRNG,15.0,Lightning,42.2499,-113.2342,ID,Aug,0,9,17.03679245,3.132075472,56.82075472,0.0,0.4250908725316689,1993
3915,GRANDMA'S,0.8,Other,33.0834,-111.7507,AZ,Jun,1,16,27.91291248,2.762697274,16.23672884,0.0,0.4151877718890864,1996
3923,PINEY CREEK,9.0,Arson,36.82888889,-84.56555556,KY,Nov,1,0,14.37554585,1.599562682,67.068,0.0,0.1557896815477084,2003
3926,POOL HOUSE,8.0,Accidental,36.11166667,-78.72483333,NC,Apr,0,0,7.079608939,2.393752914,52.28804961,0.0,0.1043336304261335,2013
3929,WESTWOOD,9.0,Debris Burning,39.6133,-110.8443,UT,Jun,0,0,16.55239327,3.910737387,40.14230272,31.4,0.4024357322459109,2005
3938,PRIMESTAR,1.3,Other,36.9872,-94.8164,OK,Feb,0,0,1.732682473,2.389353789,78.05730129,0.0,0.2496055987057808,2010
3939,FY2003-HENRY-009,0.77,Accidental,33.42733258,-84.26813761,GA,Sep,0,16,25.426547,2.071563533,72.09924709,0.0,0.1552264028129164,2002
3940,WYMAN,10.0,Lightning,46.33972222,-113.7858333,MT,Aug,3,9,0.0,0.0,0.0,0.0,0.4293760963200628,2002
3949,CLOVERDALE,1.0,Arson,38.6816,-123.051667,CA,Aug,0,0,21.63296399,1.874376731,55.06371191,0.0,0.5263071405627027,2013
3957,MILE POST,2.0,Accidental,33.2834,-110.3507,AZ,Jun,0,16,22.90515604,1.830015552,42.51020408,0.0,0.4011831627613778,1992
3962,10336,50.0,Debris Burning,34.34699999,-95.61583335,OK,Nov,0,16,13.35204756,1.532364597,71.86218837,0.0,0.2586683367414197,2010
3964,SHAMROCK,5000.0,Arson,35.9392,-96.603,OK,Jan,0,15,2.8396349410000004,3.891916558,58.63233377,2.9,0.2669470337695274,2006
3966,FIVE,316.0,Utilities,34.88166667,-118.9266667,CA,Jul,0,16,28.36061885,3.4064697610000003,36.00281294,0.0,0.486153770187232,1999
3982,A1304015,30.0,Other,42.0722,-96.4389,NE,Apr,0,9,6.645705521,5.192418033,64.84120172,85.6,0.2624354667518085,2004
3987,FY2012-MILLER-004,1.0,Debris Burning,31.10069508,-84.66822463,GA,Aug,0,12,20.10548929,2.680555556,0.0,0.0,0.1604917696625192,2011
3989,FY2014-WILCOX-008,10.4,Debris Burning,32.06476667,-83.504875,GA,Mar,0,12,13.21229623,1.753050769,68.07400498,0.0,0.1493458320070515,2014
