,fire_name,fire_size,stat_cause_descr,latitude,longitude,state,discovery_month,putout_time,year
0,WNA  1,1.0,Debris Burning,39.6414,-119.3083,NV,Jun,0,2005
1,CRAZY,1.0,Miscellaneous,48.8394,-99.7185,ND,Apr,0,2004
2,STO3573155,2.0,Debris Burning,35.7189,-92.335,AR,Jan,0,2014
3,AXE RONDEAU,1.2,Debris Burning,48.833,-99.7836,ND,Apr,0,2007
4,FY2001-EARLY-021,30.18,Debris Burning,31.259,-84.8956,GA,Oct,0,2000
5,LUCKY,1420.0,Lightning,33.2418,-104.9122,NM,Jul,1 days 00:00:00.000000000,1994
6,LAUREL BRANCH,55.0,Debris Burning,37.46458863,-81.49122444,WV,Apr,0,2014
7,AGERT,3.2,Equipment Use,43.85158,-108.19147,WY,Jul,0,2010
8,LED BETTER BARN,15.3,Equipment Use,36.5865,-96.32322,OK,Dec,1 days 00:00:00.000000000,2015
9,CALDERWOOD,270.0,Arson,35.47333333,-84.45,TN,Oct,1 days 00:00:00.000000000,1999
10,DEVIL'S,57.0,Arson,36.81666667,-82.65166667,VA,Apr,2 days 00:00:00.000000000,1995
11,SPRING GULCH,1.5,Lightning,39.205,-105.18833329999998,CO,Jul,1 days 00:00:00.000000000,1996
12,RAMP,450.0,Equipment Use,34.33,-117.5130556,CA,Jul,1 days 00:00:00.000000000,2006
13,TELEPHONE CANYON,18.0,Missing/Undefined,41.51085,-109.50637,WY,Jun,3 days 00:00:00.000000000,2012
14,LIL CARIBO,108.0,Lightning,63.8517,-150.3543,AK,Jul,26 days 00:00:00.000000000,1997
15,FY2014-TOOMBS-030,13.65,Debris Burning,32.28853889,-82.40083333,GA,Mar,0,2014
16,SWEETBAY 1,1.0,Miscellaneous,25.334719,-80.80555600000001,FL,Apr,0,1992
17,RL278,20.0,Miscellaneous,47.8666,-94.9169,MN,Apr,0,2000
18,FY2015-LAURENS-107,4.0,Debris Burning,32.25136667,-82.91357222,GA,Jan,0,2015
19,FY2011-HARRIS-024,9.94,Debris Burning,32.78947346,-84.84721729,GA,Feb,0,2011
20,HAMMER CREEK,26.0,Campfire,45.76867435,-116.3321016,ID,Aug,0,2012
21,FY2001-DADE-041,3.4,Arson,34.9102,-85.4287,GA,Mar,0,2001
22,WABANA POWERLINE,2.0,Equipment Use,47.41333333,-94.49,MN,Mar,0,1998
23,FY2012-COWETA-020,5.2,Miscellaneous,33.42630321,-84.92522609999999,GA,Apr,0,2012
24,EIGHT MILE,2.0,Campfire,37.1575,-107.0202778,CO,Sep,3 days 00:00:00.000000000,2008
25,OLD ELK,1.0,Structure,45.5639,-107.4868,MT,Oct,0,1995
26,BALL,3.0,Lightning,36.0602,-118.0965,CA,Jul,2 days 00:00:00.000000000,2003
27,WHITFIELD RD.,1.0,Arson,34.8839,-98.2039,OK,Aug,0,2011
28,NICHOLS,78.0,Arson,36.78186,-96.004014,OK,Dec,0,2013
29,MULTIPLE,3.0,Arson,33.2892,-110.4575,AZ,May,0,2006
30,FY2000-STEWART-045,1.23,Miscellaneous,32.0988,-84.7623,GA,Mar,0,2000
31,LASILOO,1.0,Children,35.0623,-108.8434,NM,May,0,1997
32,LAKERIDGE1,1.0,Lightning,33.9848,-110.0857,AZ,Jul,0,1997
33,AGARD,1.0,Debris Burning,46.1144,-100.6923,ND,Apr,0,2001
34,LINDEN - 411,1.0,Miscellaneous,33.58500167,-95.08555556,TX,Aug,0,2011
35,BUCK LAKE,9.1,Campfire,29.1325,-81.62,FL,May,0,2015
36,HOLZERS,17.9,Children,48.0443,-118.3853,WA,May,0,2001
37,WLDFR-BOYE,40.0,Equipment Use,41.533,-96.0333,NE,Aug,0,2002
38,FRIEBORN,1.5,Lightning,33.7319444,-109.026667,NM,Jul,3 days 00:00:00.000000000,2010
39,LONESOME,1.0,Lightning,40.22861111,-120.6713889,CA,Jun,1 days 00:00:00.000000000,2006
40,FY2014-BLECKLEY-006,10.0,Arson,32.51734167,-83.2437,GA,Dec,0,2013
41,CROOKED RD,2.0,Debris Burning,42.9758,-108.9493,WY,Mar,0,2006
42,FY2012-FULTON SOUTH-002,6.0,Miscellaneous,33.55983163,-84.47725968,GA,Nov,0,2011
43,FY2015-TREUTLEN-022,0.8,Debris Burning,32.45075,-82.61933333,GA,Dec,0,2014
44,8.52014E+12,5.0,Campfire,31.55336502,-90.38181672,MS,Nov,0,2014
45,LEYBA,1.0,Miscellaneous,35.5773,-106.3884,NM,Jan,0,1996
46,INDIAN CREEK,46.4,Arson,37.73305556,-91.075,MO,Mar,0,2012
47,BURLINGTON ROAD (39),1.0,Arson,30.3595,-84.8169,FL,Jun,0,2015
48,WEST HUNGRYLAND (43),76.0,Lightning,27.0042,-80.3196,FL,Jul,0,2015
49,GREEN MOUNTAIN,510.0,Lightning,47.95055556,-115.6347222,MT,Aug,18 days 00:00:00.000000000,2000
50,LUCKY2,30.0,Equipment Use,34.197,-103.532,NM,Mar,0,2011
51,1448 LIBERTY CHURCH RD.,1.0,Debris Burning,36.0107,-80.650283,NC,Jan,0,2015
52,BANNING LANE,5.0,Arson,35.34527778,-82.63527778,NC,May,1 days 00:00:00.000000000,2006
53,YATSATTIE,15.0,Debris Burning,34.8834,-109.034,NM,Mar,0,1996
54,MARSHMELLO,3.0,Children,43.255,-100.8376,SD,May,0,2002
55,212DAYSCHL,168.3,Miscellaneous,45.0917,-100.4587,SD,Apr,0,1992
56,VALLEY 2,1.3,Miscellaneous,33.50411,-116.3795,CA,Oct,5 days 00:00:00.000000000,2013
57,LONG  CYN.,5.2,Lightning,33.7556,-109.6509,AZ,Jun,3 days 00:00:00.000000000,2005
58,BLUEBELLSP,3.0,Lightning,39.4555,-109.9757,UT,Aug,0,1996
59,COWHOUSE ISLAND 1,29.0,Arson,31.0201,-82.23888889,GA,Apr,16 days 00:00:00.000000000,2006
60,ELIZABETH STREET,1.0,Lightning,39.28266823,-80.58605765,WV,Apr,0,1995
61,FREEWAY 2,8.0,Miscellaneous,39.951177,-122.200397,CA,May,0,2014
62,WENDY,3.0,Miscellaneous,35.92829376,-119.3128859,CA,Jun,0,1999
63,CREW CAB,1.0,Equipment Use,46.1525,-100.6915,ND,May,0,2005
64,ELK TRACE,9.0,Fireworks,37.7073881,-81.73046153,WV,May,0,2014
65,FY2002-FLOYD-087,9.77,Debris Burning,34.4816,-85.1115,GA,Apr,0,2002
66,FIGHTER,4.5,Arson,48.8525,-99.685,ND,Oct,0,2006
67,HONDO,2.0,Lightning,35.6845,-106.5517,NM,Jul,1 days 00:00:00.000000000,2001
68,LEFT HAND,2.0,Lightning,33.77555556,-108.8855556,NM,Nov,0,2013
69,UPS FIRE,1.0,Debris Burning,35.6995,-80.25333333,NC,Apr,0,2010
70,FY2016-HOUSTON-003,4.89,Debris Burning,32.37227778,-83.84344444,GA,Aug,0,2015
71,1603 17 MILE FIRE,4.2,Debris Burning,42.9808,-108.4483,WY,Apr,0,2012
72,SENECA FIRE,2.2,Debris Burning,38.86861111,-79.36194444,WV,Apr,2 days 00:00:00.000000000,2009
73,SHEEP PASTURE ROAD FIRE,2.0,Debris Burning,35.12,-77.83833333,NC,Apr,0,2010
74,TOWN HILL,1.0,Debris Burning,37.10551834,-82.8234024,KY,Dec,0,2013
75,9N CORN,470.0,Equipment Use,42.2017,-96.5558,NE,Mar,0,2010
76,FY2014-WALKER-051,8.71,Smoking,34.67888889,-85.30972222,GA,Apr,0,2014
77,SHAWN,4.9,Debris Burning,48.8655,-99.8528,ND,Apr,0,2010
78,SQUAWCREEK,32.4,Lightning,41.2352,-116.7362,NV,Jul,1 days 00:00:00.000000000,2001
79,10316,15.0,Lightning,34.41000001,-95.91016668,OK,Jun,0,2009
80,ROLLF,1.0,Arson,39.936181,-122.09345,CA,Aug,0,2004
81,FLAT TOP,1.0,Arson,35.7239,-94.5942,OK,Nov,0,2008
82,GABLE FIRE,656.0,Equipment Use,34.8,-102.24,TX,Jul,0,2011
83,COON CREEK FIRE,15.0,Debris Burning,37.10174179,-83.29543304,KY,Apr,1 days 00:00:00.000000000,2013
84,OAK,3.0,Equipment Use,38.886764,-123.16392,CA,Oct,0,2009
85,ADA STROUD RD FIRE,1.0,Smoking,35.36848333,-77.94196666,NC,Mar,0,2010
86,SWEENEY,10.0,Campfire,37.21778,-87.73299,KY,Mar,1 days 00:00:00.000000000,2012
87,WARD ROAD,1.5,Miscellaneous,46.38,-120.337,WA,Jun,0,2007
88,96,1.0,Arson,47.9783,-99.0225,ND,Apr,0,2007
89,CADE,1.0,Debris Burning,41.81416667,-123.35833329999998,CA,Jun,0,2005
90,SHEEP,0.6,Lightning,34.33805556,-117.7088889,CA,Jul,1 days 00:00:00.000000000,2011
91,THUMB,1.0,Lightning,35.06555556,-112.0052778,AZ,May,0,2001
92,HOPE RD FIRE,3.8,Lightning,34.383334999999995,-80.966667,SC,Jul,0,2011
93,FY2011-UPSON-070,2.45,Debris Burning,32.84417763,-84.40365152,GA,Apr,0,2011
94,ZURFLUH GRASS FIRE,1.68,Debris Burning,44.69583,-122.72389,OR,Aug,0,2014
95,FY2011-GLYNN-044,2.2,Lightning,31.27108084,-81.46903512,GA,Jun,1 days 00:00:00.000000000,2011
96,FY2012-STEPHENS-013,0.75,Debris Burning,34.51570968,-83.35523917,GA,Apr,0,2012
97,MM 141,1.0,Missing/Undefined,40.62478,-118.22181,NV,Jul,1 days 00:00:00.000000000,2014
98,SURVEY,1.0,Miscellaneous,44.29277778,-111.2758333,ID,Sep,1 days 00:00:00.000000000,2000
99,DOOLEN'S RIDGE,29.0,Arson,35.0192,-96.6255,OK,Mar,1 days 00:00:00.000000000,2013
100,109,5.0,Debris Burning,38.79,-95.83,KS,Apr,0,2015
101,BROKEN AXLE FIRE,42.0,Missing/Undefined,34.98655,-77.31756667,NC,Jun,0,2011
102,RL007,1.0,Arson,47.8686,-95.0864,MN,Mar,0,2003
103,JOHN VANN,3.0,Arson,35.7242,-94.5592,OK,Nov,0,2012
104,FY2015-BALDWIN-004,1.0,Debris Burning,33.03691667,-83.31219444,GA,Oct,0,2014
105,VOLT CIRCLE,3.0,Equipment Use,35.74901666,-81.03288333,NC,Mar,0,2010
106,RIVER,5.0,Debris Burning,26.49373,-98.8915,TX,Aug,0,2003
107,CEDAR GAP,33.0,Arson,36.27722222,-82.135,TN,Sep,5 days 00:00:00.000000000,2005
108,LIVINGSTON - 226,10.0,Debris Burning,31.18938333,-95.61306667,TX,Apr,0,2011
109,OTA 14,12.1,Equipment Use,43.14277,-116.07345,ID,Jun,0,2013
110,NAVAJO 1,1.0,Miscellaneous,35.25564,-109.02519,NM,May,0,2009
111,44,30.0,Debris Burning,39.15,-95.1,KS,Mar,0,2015
112,SECO,5.0,Miscellaneous,36.23638889,-121.4586111,CA,Oct,0,1995
113,CROCKER 2,4.0,Missing/Undefined,35.4125,-119.7908,CA,Jun,0,2011
114,BAR,15.0,Lightning,39.49527778,-121.12583329999998,CA,May,3 days 00:00:00.000000000,2013
115,CAL-PAC 17,4.0,Arson,41.0332,-123.6512,CA,Oct,0,1998
116,5.92014E+12,2.0,Debris Burning,30.6826327,-88.57432712,MS,Oct,0,2014
117,RL385,1.0,Miscellaneous,47.9733,-95.2519,MN,Apr,0,2000
118,FY2014-LAMAR-007,4.0,Arson,33.12555833,-84.19145,GA,Dec,0,2013
119,1019,1.0,Miscellaneous,39.29333,-88.368889,IL,Mar,0,2010
120,DAILY,2.0,Lightning,47.25583,-107.15017,MT,May,0,2014
121,LIMPY,0.8,Children,45.5275,-106.9812,MT,Mar,0,1995
122,CARVER CEMETERY,6.0,Campfire,38.4443,-83.2043,KY,Mar,0,2015
123,WILLOW CREEK,1600.0,Lightning,46.6617,-108.5317,MT,Jul,0,2006
124,FOURMILE,18.0,Lightning,41.6908,-116.4258,NV,Aug,1 days 00:00:00.000000000,2012
125,WILSON,160.0,Debris Burning,47.34027778,-114.74666670000002,MT,May,19 days 00:00:00.000000000,2001
126,MILE MARKER FIVE 5,1.0,Miscellaneous,39.44166667,-82.28555556,OH,Mar,0,2008
127,OLD HWY 27,1.0,Arson,36.86638889,-84.49083333,KY,Apr,1 days 00:00:00.000000000,2004
128,FY2002-DOOLY-024,12.1,Debris Burning,32.2014,-83.7933,GA,Jan,0,2002
129,CHRISTOPHER,3.0,Lightning,34.2722222,-111.035556,AZ,Sep,3 days 00:00:00.000000000,2010
130,PGE #2,1.5,Miscellaneous,36.05823,-119.49154,CA,Aug,0,2005
131,CON6029750,20.0,Miscellaneous,35.3947,-92.8079,AR,Feb,0,2014
132,KENSINGTON,1500.0,Debris Burning,39.83333333,-98.83333333,KS,Oct,1 days 00:00:00.000000000,1999
133,CIG,1.0,Miscellaneous,31.9167,-111.849,AZ,Oct,0,2010
134,FY2002-TAYLOR-040,2.81,Debris Burning,32.4415,-84.1977,GA,Mar,0,2002
135,HELPMEJACK LAKES,5.0,Lightning,66.9106,-153.675,AK,Jul,12 days 00:00:00.000000000,2011
136,BOULDER,0.8,Lightning,45.18722222,-116.3205556,ID,Jul,1 days 00:00:00.000000000,2003
137,WEITAS,8.0,Lightning,46.57666667,-115.4566667,ID,Aug,5 days 00:00:00.000000000,1998
138,RUSH FK.,11.0,Debris Burning,39.43448578,-80.97662087,WV,Mar,0,2001
139,SHOE,5.0,Miscellaneous,42.8848,-116.10859,ID,Aug,1 days 00:00:00.000000000,2015
140,#9,1.0,Arson,34.8366667,-92.7663889,AR,Mar,1 days 00:00:00.000000000,2010
141,OTA 127,25.0,Arson,43.2533,-116.1603,ID,Jul,0,2011
142,BALLI,5.0,Arson,26.13027778,-98.15666667,TX,Jul,0,2009
143,21007,2.0,Miscellaneous,37.35,-94.83,KS,Feb,0,2015
144,SHIPROCK 1,83.0,Debris Burning,36.7875,-108.6911,NM,Apr,0,2009
145,DOYLE,8.0,Lightning,39.9932,-119.9877,CA,Jun,1 days 00:00:00.000000000,1996
146,52,5.0,Miscellaneous,39.01,-95.44,KS,Mar,0,2015
147,PHOEBE ISLAND,0.7,Campfire,47.855,-91.00777778,MN,Jul,1 days 00:00:00.000000000,2002
148,ARLENE,10610.0,Miscellaneous,31.33888889,-110.54583329999998,AZ,May,6 days 00:00:00.000000000,2011
149,57,0.6,Children,45.9916,-89.8529,WI,Apr,0,1997
150,FENCEMAKER,2.0,Miscellaneous,40.0649,-117.8626,NV,Jun,1 days 00:00:00.000000000,1994
151,493,10.0,Debris Burning,26.41166667,-98.92027778,TX,Jan,1 days 00:00:00.000000000,2008
152,FY2000-POLK-105,10.11,Debris Burning,34.0531,-85.2719,GA,Jan,0,2000
153,LICK CREEK,25.0,Arson,35.367933,-84.39156,TN,Oct,0,2007
154,FY2000-GRADY-073,0.6,Debris Burning,30.8988,-84.1749,GA,Feb,0,2000
155,18TH AVE NE (11),2.0,Lightning,26.2639,-81.514,FL,Aug,0,2014
156,CARROL FIRE,2.0,Debris Burning,28.34296667,-97.71205,TX,Aug,0,2014
157,6.12015E+12,2.0,Debris Burning,31.8859302,-89.20268668,MS,May,0,2015
158,FY2015-SEMINOLE-001,1.95,Debris Burning,31.01638889,-84.89972222,GA,Jul,0,2014
159,COLUMBIA,4.9,Arson,44.70000082,-67.80000333,ME,Jun,0,1992
160,2360 NORTH,70.0,Debris Burning,26.3825,-98.605,TX,Feb,1 days 00:00:00.000000000,2005
161,POWERPLANT,7.0,Powerline,42.60045,-114.39701,ID,Aug,0,2000
162,SKU CANAL,2.0,Arson,41.7782,-122.6395,CA,Jul,0,2000
163,FY2002-CARROLL-037,1.1,Campfire,33.6588,-85.1642,GA,Nov,0,2001
164,BRIMESTONE,125.0,Arson,36.3156,-84.47952,TN,Apr,2 days 00:00:00.000000000,2007
165,OLD TIMER,3.0,Missing/Undefined,46.44665,-111.96946,MT,Mar,4 days 00:00:00.000000000,1994
166,PEARL DRIVE,2.0,Missing/Undefined,34.74143333,-76.63756667,NC,Jul,0,2011
167,T,10.0,Lightning,45.94527778,-115.3161111,ID,Aug,5 days 00:00:00.000000000,2003
168,BAX23614311,27.0,Debris Burning,36.26666,-92.28333,AR,Apr,0,2014
169,CLARK,1.0,Campfire,37.78222222,-118.9413889,CA,Sep,0,2011
170,RL439,7.0,Miscellaneous,47.8569,-94.8964,MN,Apr,0,2000
171,WOOD CANYON COMPLEX,1.5,Equipment Use,32.2286,-104.3106,NM,Jun,0,2010
172,762,1.0,Debris Burning,30.81772821,-89.62257954,MS,Oct,0,2015
173,TRIBAL,5.0,Debris Burning,35.525,-106.3809,NM,May,0,2002
174,JACK,0.8,Lightning,33.715,-109.1166667,AZ,Jun,1 days 00:00:00.000000000,2000
175,WHITNEY PASS,12.0,Lightning,36.55,-114.0792,NV,Jul,2 days 00:00:00.000000000,2007
176,OGEMAW 02 - DECKERVILLE,14.6,Debris Burning,44.45954,-84.0329,MI,Mar,0,2012
177,TURNER CREEK,48.4,Debris Burning,48.7929,-118.8518,WA,Apr,167 days 00:00:00.000000000,2015
178,BUTTERFIELD,1.0,Miscellaneous,34.505,-117.88,CA,Jul,0,1998
179,EASTER,10.0,Debris Burning,37.1167,-107.2839,CO,Apr,0,1998
180,CUMARO,725.0,Lightning,32.56916667,-110.4536111,AZ,Jun,3 days 00:00:00.000000000,2008
181,30311,50.0,Debris Burning,35.51670001,-94.75148335,OK,Feb,0,2009
182,9.2014E+11,1.0,Debris Burning,34.93883823,-89.22131759,MS,Jan,0,2014
183,HONEY SPRINGS,700.0,Miscellaneous,35.5367,-95.4822,OK,Aug,3 days 00:00:00.000000000,2012
184,COUNTY ROAD 31  / COUNTY,8.0,Equipment Use,38.90525,-121.960717,CA,May,0,2012
185,MT ZION,3.0,Missing/Undefined,32.1403,-90.6644,MS,Nov,0,2014
186,COTTONWOOD,0.9,Lightning,35.28333333,-108.35,NM,Jul,1 days 00:00:00.000000000,2004
187,EAGLE SPRINGS SANDPIT,1.0,Arson,35.3,-79.66666666,NC,Aug,0,2010
188,HORSE,62.0,Lightning,33.8962,-104.4169,NM,Jul,0,1998
189,SNOW FALLS FIRE,110.4,Lightning,45.25945,-88.44646999999999,WI,May,2 days 00:00:00.000000000,2014
190,CORNPATCH,2.0,Miscellaneous,33.1501,-111.7865,AZ,May,0,1993
191,FY2000-WAYNE-046,0.7,Arson,31.618,-81.8955,GA,Feb,0,2000
192,HORSE PASTURE FIRE,1.8,Debris Burning,36.50583333,-81.0585,NC,Apr,0,2013
193,HUBBARD LN,20.0,Debris Burning,46.4054,-120.747,WA,Jul,0,2002
194,021 DAY OFF,1.9,Lightning,31.59722222,-92.54388889,LA,Jun,0,2012
195,RAT RIVER,1.0,Debris Burning,45.48194444,-88.49444444,WI,Sep,0,2008
196,CARPFARM,62.0,Arson,35.2758,-98.3019,OK,Aug,1 days 00:00:00.000000000,2010
197,15-0052,2.0,Miscellaneous,37.28,-94.87,KS,Nov,0,2015
198,18TH DRIVE,1.4,Miscellaneous,43.80695,-89.25458,WI,May,0,2012
199,FY2011-TWIGGS-040,2.51,Children,32.62073868,-83.34583685,GA,Jan,0,2011
200,FIFTEENTH,8.0,Miscellaneous,36.4103,-96.8369,OK,Feb,0,2006
201,CACTUS;S,1.0,Fireworks,43.9592,-99.2376,SD,Jul,0,2000
202,HICKEY,360.0,Debris Burning,36.4739,-96.6853,OK,Apr,0,2002
203,GENE,15.0,Lightning,36.78,-107.2744444,NM,Aug,0,2002
204,READING,1.0,Missing/Undefined,40.595767,-122.8924,CA,Oct,0,2012
205,CURTIS ROAD,0.65,Equipment Use,47.4922,-117.4899,WA,Jun,6 days 00:00:00.000000000,2015
206,ROCK,5.0,Lightning,42.12944444,-105.3236111,WY,Jun,0,2002
207,382,1.0,Debris Burning,31.63911778,-90.25931278,MS,Sep,0,2015
208,20034,95.0,Arson,34.9846667,-94.97000001,OK,Jan,0,2011
209,WILKEY RD. 11/22/14,2.0,Debris Burning,35.52415,-84.95835,TN,Nov,0,2014
210,WALKER,0.75,Lightning,44.94805556,-119.7075,OR,Jul,2 days 00:00:00.000000000,2008
211,SELECK (64),4.0,Lightning,29.0151,-80.9726,FL,Jul,0,2015
212,MAUER,15.0,Lightning,44.95083333,-112.76666670000002,MT,Jul,1 days 00:00:00.000000000,2003
213,30117,50.0,Miscellaneous,35.95900002,-94.65166664,OK,Mar,0,2010
214,"361 NEWTON HILL RD., AL",0.75,Debris Burning,32.142708899999995,-88.11415190000001,AL,Feb,0,2011
215,TWP ROR,1.0,Miscellaneous,39.133333,-89.828333,IL,Dec,0,2008
216,LEONS,3.0,Debris Burning,48.4667,-108.6007,MT,Apr,0,1999
217,SCATWIL 01,3.0,Lightning,35.7917,-109.1932,AZ,Jul,0,2006
218,FAREWELL,3.8,Railroad,35.79222222,-82.01472222,NC,Feb,0,2011
219,NYGARD,3.5,Debris Burning,48.1109,-105.3189,MT,Apr,0,1995
220,JEEP TRAIL,5.0,Equipment Use,39.5214825,-78.32149812,WV,Jul,0,1999
221,DEAD MAN,1.0,Arson,45.563,-107.6611,MT,Jan,0,2006
222,MOORE,1.0,Debris Burning,36.51855,-86.556833,TN,Mar,0,2014
223,COLE CREEK,80.0,Equipment Use,45.71166667,-102.5286111,SD,Aug,0,2006
224,RED LAKE 178,750.0,Arson,47.92056,-95.37611,MN,Apr,0,2010
225,LENA,1.0,Arson,34.6769444,-93.2147222,AR,Sep,0,2010
226,JAKE,1.0,Arson,37.81888889,-91.93388889,MO,Apr,1 days 00:00:00.000000000,2000
227,JAZZY GIRL,20.0,Miscellaneous,35.1311,-96.7453,OK,Mar,0,2006
228,GOOD LUCK,168.3,Equipment Use,45.27,-107.6309,MT,Aug,0,2008
229,CHUI CHU,1.0,Miscellaneous,32.7537,-111.7699,AZ,Jun,0,2009
230,551 JARVISBURG RD,1.0,Equipment Use,36.17985,-75.84795,NC,Jul,0,2013
231,TEN MILE,100.0,Lightning,38.8333,-109.8173,UT,Jul,0,1993
232,FY2001-PULASKI-038,12.98,Debris Burning,32.2356,-83.5304,GA,Jan,0,2001
233,MILE POST 6 FIRE,5.0,Miscellaneous,32.27305556,-110.6427778,AZ,Nov,0,2009
234,DALY,0.6,Smoking,44.0772,-99.4571,SD,Apr,0,2002
235,JOLLY RODGER,1.0,Lightning,45.66833333,-118.04833329999998,OR,Jul,0,1998
236,515,15.0,Miscellaneous,39.33,-95.77,KS,May,0,2015
237,FOWLERS FIRE,11.0,Miscellaneous,29.41944444,-83.00055556,FL,Jun,12 days 00:00:00.000000000,2011
238,HILL,1.0,Miscellaneous,38.3525,-122.537833,CA,Aug,0,2013
239,PEONY,0.75,Debris Burning,48.6419,-119.1895,WA,Aug,69 days 00:00:00.000000000,2015
240,SIMMONS POND FIRE,6.0,Missing/Undefined,34.1485,-78.74366667,NC,Mar,0,2011
241,RED WILLOW,1.0,Lightning,35.8911,-108.8073,NM,Aug,0,2005
242,MUSKEGON 03,43.7,Powerline,43.202603,-86.09146,MI,Jul,0,2013
243,WESTON HILLS,6.5,Lightning,44.6061,-105.3747,WY,Aug,1 days 00:00:00.000000000,2009
244,2011-CARUSO FIRE-0106,1.0,Powerline,27.4463,-82.4795,FL,Feb,0,2011
245,LONG BRANCH,300.0,Fireworks,37.96294298,-81.40544539,WV,Apr,1 days 00:00:00.000000000,2014
246,DEEP CREEK,224.0,Lightning,30.35333333,-82.52694444,FL,Aug,1 days 00:00:00.000000000,2013
247,FY2001-BRANTLEY-088,4.0,Debris Burning,31.3266,-81.8971,GA,Apr,0,2001
248,STOCKDALE,300.0,Missing/Undefined,42.0439,-111.7747,ID,Jul,3 days 00:00:00.000000000,2007
249,CHANDALAR,57.0,Lightning,67.983,-147.7194,AK,Jun,8 days 00:00:00.000000000,2004
250,WILLIAM SMITH ROAD,2.0,Campfire,39.55455495,-80.10804517,WV,Nov,0,2005
251,FY2014-LOWNDES-009,1.5,Children,30.91638889,-83.02333333,GA,Jan,0,2014
252,BOULDER-WYMAN,12.0,Miscellaneous,46.40694444,-113.2186111,MT,May,2 days 00:00:00.000000000,2001
253,4TH OF JULY,25.0,Fireworks,34.8972,-114.6331,AZ,Jul,4 days 00:00:00.000000000,2015
254,REBURN,2.0,Miscellaneous,46.25,-100.6837,ND,Sep,0,1996
255,H HOLLOW 2,76.0,Lightning,38.75,-112.7174,UT,Jul,2 days 00:00:00.000000000,1994
256,8054,21.0,Debris Burning,30.83833333,-95.82066667,TX,Jul,0,2014
257,UNNAMED FIRE 1981,2.0,Arson,37.989414,-120.412489,CA,Oct,0,2007
258,STERLING FIRE,4.0,Arson,47.087222,-68.048611,ME,Jul,0,2013
259,OLD WHETSTONE,18.0,Debris Burning,38.554,-82.8766,KY,Oct,1 days 00:00:00.000000000,2015
260,MURPH,2.2,Smoking,48.41666667,-107.73333329999998,MT,Sep,0,1996
261,FY2012-DECATUR-001,2.17,Debris Burning,30.77560111,-84.54970796,GA,Aug,0,2011
262,DEER LAKE,2613.0,Arson,36.8039,-96.2222,OK,Mar,3 days 00:00:00.000000000,2010
263,6272,1.0,Miscellaneous,32.60381667,-94.68415,TX,Aug,0,2013
264,HIDDEN AGENDA,1.0,Arson,47.9472,-117.9017,WA,Jun,3 days 00:00:00.000000000,2014
265,POPLAR,1.0,Debris Burning,43.73333333,-85.7,MI,May,0,2000
266,RL059,0.8,Arson,47.8725,-94.9872,MN,Apr,0,2009
267,DONUT,1.0,Fireworks,43.0839,-102.5936,SD,Jun,0,2006
268,BLUE,3.0,Arson,33.3001,-110.434,AZ,Jul,0,1992
269,UNIT 48,23.8,Lightning,35.76823,-106.29758,NM,May,2 days 00:00:00.000000000,1993
270,LINDEN - 6283,1.0,Miscellaneous,33.80944444,-94.96555556,TX,Nov,0,2012
271,HENDERSON - 385,3.0,Equipment Use,31.81123333,-95.6897,TX,Aug,0,2011
272,RL37,20.0,Miscellaneous,47.8777,-95.0419,MN,Mar,0,2000
273,WOODVILLE - 200,5.0,Lightning,30.42027778,-94.66861111,TX,Aug,0,2009
274,HURRICANE ASST. #3,23.5,Miscellaneous,37.155594,-113.400836,UT,Jun,2 days 00:00:00.000000000,2011
275,OTA 11,18.0,Miscellaneous,43.24603,-116.15787,ID,Jun,0,2010
276,REICHWEIN RD,0.75,Debris Burning,40.7575,-76.39,PA,Mar,3 days 00:00:00.000000000,2015
277,FY2013-BULLOCH-053,1.1,Debris Burning,32.45363889,-81.70655556,GA,Mar,0,2013
278,BROOLYN BRIDGE,2.0,Railroad,31.05277778,-89.18444444,MS,Feb,2 days 00:00:00.000000000,2000
279,MCNIGHT FIRE,95.0,Lightning,30.75407502,-103.7228986,TX,Aug,0,2011
280,"LOST CREEK RD, AL",1.0,Arson,33.932387899999995,-88.1866787,AL,Nov,0,2011
281,WHITE BODY,4.0,Miscellaneous,47.6,-101.9004,ND,Oct,0,1998
282,CAYUSE,1077.0,Lightning,45.44222222,-114.5575,ID,Aug,12 days 00:00:00.000000000,2012
283,UNKNOWN,3.0,Smoking,38.4621,-107.8663,CO,Mar,0,2013
284,LAGUNA,1.0,Miscellaneous,31.9117,-111.8935,AZ,Nov,0,2008
285,LONGHOLL2,2.0,Debris Burning,45.6894,-97.1606,SD,Apr,0,2001
286,RL192,30.0,Children,48.0361,-94.8855,MN,May,0,2009
287,CANADA,5.0,Lightning,36.11472222,-105.84166670000002,NM,Jul,1 days 00:00:00.000000000,2008
288,FY2015-COWETA-013,2.3,Debris Burning,33.316125,-84.54743056,GA,Mar,0,2015
289,LIVINGSTON - 231,4.0,Arson,30.49633333,-95.34413333,TX,Aug,0,2009
290,DEEP LAKE,8330.0,Lightning,26.03333,-81.3,FL,Jun,4 days 00:00:00.000000000,2008
291,HIDDEN VALLEY,6.5,Lightning,42.885,-114.0164,ID,Jul,0,2012
292,MS2003,30.0,Debris Burning,47.9722,-98.8726,ND,May,0,1996
293,BIRTHDAY (38),7.0,Lightning,29.3822,-82.7936,FL,Aug,0,2011
294,AIRPORT,20.0,Equipment Use,34.6264,-95.318,OK,Jul,0,2014
295,LA PLATA 3,2.0,Lightning,36.8728,-108.1854,NM,Jul,0,1996
296,SLICK CREEK 8,2.7,Miscellaneous,43.99672,-107.87236,WY,Jun,0,2012
297,HORSE STABLE,1.0,Miscellaneous,36.3425,-96.8003,OK,Aug,1 days 00:00:00.000000000,2006
298,SOME KUDZU,1.5,Arson,36.86805556,-84.4025,KY,Mar,3 days 00:00:00.000000000,1999
299,RL489,3.0,Debris Burning,47.8797,-94.8908,MN,Apr,0,2003
300,8017,1.0,Debris Burning,30.84941667,-94.75041667,TX,Mar,0,2013
301,FLEMING,5.6,Equipment Use,38.7025,-120.5541667,CA,Jun,0,2012
302,WHEAT,3.5,Arson,33.4735,-111.8174,AZ,Jun,0,2008
303,STATE,2.0,Miscellaneous,33.706481,-117.2667,CA,May,0,1998
304,RT 10 NEAR SAND CREEK,0.8,Debris Burning,38.02980904,-82.12238461,WV,Jun,0,2005
305,LIVESTOCK YARD,1.0,Missing/Undefined,46.94317,-114.13546,MT,Jul,1 days 00:00:00.000000000,1994
306,FITZHUGH WILLIAMS LN,60.0,Debris Burning,34.30333333,-78.32166667,NC,Apr,0,2012
307,VALLEY CRK 184,1.3,Miscellaneous,47.161,-114.2815,MT,Oct,3 days 00:00:00.000000000,2012
308,OWL SPRINGS 1,1.0,Arson,36.107690000000005,-108.85778,NM,May,1 days 00:00:00.000000000,2012
309,HAWK CREEK,75.0,Lightning,46.2739,-108.1459,MT,Aug,0,1998
310,RADIO RANGE,3.0,Equipment Use,34.83888889,-76.80666667,NC,Feb,0,2013
311,HONDAH,1.5,Equipment Use,34.0945,-109.9229,AZ,Aug,0,2002
312,LIVINGSTON - 52,1.0,Arson,30.79303333,-93.71521667,TX,Feb,0,2011
313,PETERSONII,20.0,Miscellaneous,45.6833,-101.1338,SD,Oct,1 days 00:00:00.000000000,1995
314,H. GROUND,3.0,Arson,33.3501,-110.434,AZ,Aug,0,1993
315,RIDGE,2.5,Lightning,36.47333333,-106.245,NM,Aug,0,1995
316,MOSQUITO CREEK,115.0,Lightning,38.80916667,-116.68194440000002,NV,May,1 days 00:00:00.000000000,2004
317,11-00098,1.0,Miscellaneous,44.076,-107.924611,WY,Jun,0,2011
318,"9769 HWY 159, AL",5.0,Debris Burning,33.5995656,-87.87323,AL,May,0,2011
319,HOLIDAY,1.4,Missing/Undefined,40.696883,-122.151983,CA,Jul,0,2013
320,FY2013-DECATUR-006,1.21,Debris Burning,30.91525278,-84.53261667,GA,Nov,0,2012
321,GOOD FRIDAY,9.0,Campfire,48.4903,-108.7985,MT,Mar,0,2008
322,PENNER POND 21,62.0,Lightning,29.48277778,-81.80916667,FL,Aug,2 days 00:00:00.000000000,2014
323,RL636,1.0,Miscellaneous,47.873000000000005,-95.0431,MN,May,0,2002
324,SAPLIN HEAD,23.0,Campfire,30.19416667,-84.81638889,FL,Feb,0,2013
325,WEBB ROAD,94.0,Arson,37.95896804,-82.46998378,WV,Feb,1 days 00:00:00.000000000,1992
326,GREEN PASTURES FIRE,1.0,Debris Burning,36.1975,-78.18826667,NC,Feb,0,2012
327,GARDEN BURNER,8.9,Arson,36.8961,-94.7139,OK,Mar,0,2008
328,HOURGLASS,1221.0,Lightning,40.05,-105.05,CO,Jul,6 days 00:00:00.000000000,1994
329,LIME KILN #1,15.0,Lightning,42.28833333,-112.3533333,ID,Aug,0,1996
330,MELTON 1,3073.0,Lightning,47.4289,-114.3914,MT,Aug,31 days 00:00:00.000000000,2015
331,30463,15.0,Arson,35.87686666,-94.55785001,OK,Sep,0,2011
332,JOSHUA,8.25,Lightning,32.85722222,-108.8655556,NM,Jun,8 days 00:00:00.000000000,2007
333,15-0156,2.0,Equipment Use,38.78,-99.56,KS,Sep,0,2015
334,FY2012-DOOLY-025,6.78,Railroad,32.12529791,-83.78150273,GA,May,0,2012
335,JOHN STARR,14.3,Lightning,40.5375,-110.1622,UT,Aug,3 days 00:00:00.000000000,2012
336,17-PILGRIM TRAIL FIRE-0309,4.0,Structure,30.7819,-87.4196,FL,Feb,0,2011
337,C-1 WASH,1.0,Lightning,34.1184,-110.4423,AZ,Jul,1 days 00:00:00.000000000,1996
338,LAWN MOWER MAN,0.8,Miscellaneous,35.69616666,-80.07783333,NC,Nov,0,2010
339,FIRE BALL,12.0,Equipment Use,31.165,-89.14,MS,Feb,1 days 00:00:00.000000000,1996
340,LEWIN,120.0,Equipment Use,33.77845,-117.459261,CA,Aug,0,1998
341,BIG HLW 2,2.0,Miscellaneous,34.58149,-88.24894,MS,Jul,0,1993
342,MERRIWEATHER,560.0,Miscellaneous,30.43527778,-103.7019444,TX,Dec,1 days 00:00:00.000000000,2009
343,BANKS,3.5,Children,47.38306,-95.49222,MN,Apr,0,2010
344,A. J. LANE,3.0,Debris Burning,34.13116667,-78.85683333,NC,Jul,0,2013
345,FY2011-CALHOUN-034,1.06,Debris Burning,31.45949288,-84.51523117,GA,May,0,2011
346,HEISLER RD (32),5.0,Debris Burning,30.925,-85.5009,FL,Jan,0,2014
347,OTA 11,4.0,Lightning,43.26661,-116.12597,ID,Aug,0,1994
348,ASH,30.0,Equipment Use,39.175,-119.83,NV,Oct,0,1995
349,RUUD,4.0,Debris Burning,35.01218333,-84.25651666,NC,Apr,0,2014
350,LESLIE,2.0,Miscellaneous,39.825,-120.375,CA,Aug,0,1992
351,KING RUN ROAD,3.0,Arson,38.85449901,-79.83531315,WV,Apr,0,1998
352,DEAD CALF,2.0,Arson,35.8506,-85.173683,TN,Mar,0,2013
353,STONE HOUSE RD.,3.0,Powerline,37.99803165,-80.8932798,WV,Apr,0,2003
354,WALATOWA,1.0,Arson,35.64444,-106.72669,NM,Jun,1 days 00:00:00.000000000,2010
355,CAP1,250.0,Lightning,33.4001,-103.7172,NM,Apr,0,1994
356,MULE PASS,122.0,Missing/Undefined,31.5,-110.0,AZ,May,3 days 00:00:00.000000000,2009
357,WINNIE DAM #1,1.03,Arson,47.35444444,-94.17194444,MN,Apr,0,2005
358,SECTION 30,40.0,Miscellaneous,35.0833,-114.6175,AZ,May,1 days 00:00:00.000000000,1993
359,ANDERSONBR,1.5,Lightning,47.55,-109.5841,MT,Jun,0,1994
360,FY2014-MACON-010,1.89,Debris Burning,32.35810278,-84.20607778,GA,Mar,0,2014
361,NORTH BEAVER CREEK,2.0,Lightning,39.06333333,-104.9327778,CO,Jun,1 days 00:00:00.000000000,2004
362,"27301 CORD 32, AL",2.8,Miscellaneous,31.3509515,-85.33582320000001,AL,Mar,0,2011
363,B FIREHOLE,1.0,Lightning,41.338,-109.3985,WY,Aug,0,1997
364,BOLGER FIRE,5.0,Debris Burning,35.2078,-87.971067,TN,Mar,0,2014
365,008-032,1.0,Miscellaneous,41.248333,-89.238056,IL,Mar,0,2008
366,TH1815,200.0,Arson,47.9875,-99.0296,ND,Oct,1 days 00:00:00.000000000,1999
367,FY2015-EARLY-015,15.0,Debris Burning,31.26656944,-84.876375,GA,Mar,0,2015
368,FY2012-MERIWETHER-006,0.66,Debris Burning,32.91407029,-84.56089574,GA,Aug,0,2011
369,NOT READY,1.5,Debris Burning,26.2275,-98.35555556,TX,Jun,1 days 00:00:00.000000000,2004
370,LINDEN - 235,15.0,Lightning,32.89211667,-94.68493333,TX,Jun,0,2011
371,CAN,1.2,Railroad,41.61869,-87.18137,IN,Sep,0,1995
372,RT301EAST,4.0,Children,35.0856,-108.7867,NM,Jul,0,1997
373,BUTTERMILK,150.0,Lightning,41.7,-117.48333329999998,NV,Jul,1 days 00:00:00.000000000,1994
374,"1724 ROBERTSMILL POND RD, AL",3.0,Debris Burning,33.587684499999995,-86.3352112,AL,Mar,0,2011
375,MHM SE 36,10.0,Lightning,63.6828,-151.0856,AK,Jun,92 days 00:00:00.000000000,1993
376,JACK KNIFE II,1.2,Lightning,44.73,-101.8288,SD,Aug,0,2006
377,JEFFERSON,10.0,Arson,41.995131,-122.603839,CA,Oct,2 days 00:00:00.000000000,2003
378,PAPOOSE,19520.0,Lightning,45.27,-114.805,ID,Aug,91 days 00:00:00.000000000,2007
379,WESTWATER 1,90.0,Lightning,39.0636,-109.1575,UT,Jul,3 days 00:00:00.000000000,2009
380,DEER VALLEY FIRE,1.5,Miscellaneous,36.559666,-81.31263299999999,NC,Feb,0,2015
381,RL212,1.0,Miscellaneous,48.0613,-94.9967,MN,Apr,0,2002
382,35 E,5.63,Debris Burning,31.67583333,-92.85027778,LA,Feb,0,2015
383,EUCALYPTUS 2 (26),1.0,Lightning,26.5983,-81.37899999999999,FL,Jul,0,2015
384,WATER TOWER,2.0,Arson,34.65,-94.705,OK,Mar,0,1995
385,NESP DUMP,4.0,Miscellaneous,48.1375,-119.0061,WA,Jul,0,2005
386,STEAMHOLLO,4.0,Miscellaneous,38.507090000000005,-78.56877,VA,Apr,2 days 00:00:00.000000000,1996
387,HARMON II,170.0,Debris Burning,36.90167,-84.94834,KY,Nov,0,2011
388,DITCH,4.0,Miscellaneous,33.1173,-111.9179,AZ,Aug,0,1994
389,17 - HWY 90 FIRE,10.0,Debris Burning,30.5347,-87.4156,FL,Feb,0,2011
390,LOST 2,792.0,Debris Burning,36.4347,-96.0783,OK,Apr,1 days 00:00:00.000000000,2008
391,30445,7.0,Debris Burning,35.61921666,-94.79961669,OK,Aug,0,2011
392,(OK) LARSONS (746),22.5,Miscellaneous,27.2492,-80.74600000000001,FL,Dec,0,2010
393,RED HOUSE 2,110.3,Lightning,41.1567,-116.0739,NV,Jul,12 days 00:00:00.000000000,2007
394,15-BLUE DUCK FIRE SET 2-0121,12.0,Arson,29.6254,-83.2385,FL,Mar,0,2011
395,FY2015-RANDOLPH-009,2.43,Debris Burning,31.6625,-84.77501944,GA,Jan,0,2015
396,MS2208,4.0,Arson,47.975,-98.8296,ND,Apr,0,1998
397,UPO,1.0,Miscellaneous,43.3311,-102.1958,SD,Nov,0,2011
398,RED LAKE 069,0.8,Arson,47.8692,-95.1805,MN,Mar,0,2012
399,FY2003-BARTOW-006,3.0,Arson,34.31863882,-84.89151561,GA,Aug,0,2002
400,8TH HOLE,1766.0,Miscellaneous,39.5519,-119.6652,NV,Jun,2 days 00:00:00.000000000,2000
401,SNIDER,1.0,Debris Burning,47.60666667,-115.22,MT,Mar,0,1995
402,FRANKS RD FIRE,16.0,Lightning,32.091359999999995,-96.95972,TX,Oct,0,2011
403,SQUIRREL,0.8,Lightning,33.78555556,-108.70166670000002,NM,Jun,1 days 00:00:00.000000000,1999
404,FOWLER CREEK,2.0,Debris Burning,47.17398,-121.05123,WA,May,10 days 00:00:00.000000000,2008
405,DENNY,3.0,Debris Burning,35.9667,-110.584,AZ,Mar,0,1996
406,FY2002-BULLOCH-137,0.98,Arson,32.3893,-81.58800000000001,GA,May,0,2002
407,FAIRVIEW,6.0,Equipment Use,33.716111100000006,-116.871111,CA,May,0,2010
408,TOWNHALL,0.6,Miscellaneous,43.68,-85.81,MI,Apr,0,2013
409,BARNES FIRE,2.0,Debris Burning,37.83625,-85.54896,KY,Mar,0,2011
410,7055,6.0,Lightning,31.70405,-95.31631667,TX,Jul,0,2013
411,ALCHESAY,1.9,Lightning,33.93,-109.9207,AZ,Aug,0,1996
412,RIVERA,5.0,Equipment Use,35.7619444,-106.598333,NM,May,11 days 00:00:00.000000000,2010
413,TUTON,1.0,Lightning,33.0123,-105.428,NM,Jul,0,2002
414,WOHLFORD 3,3.0,Missing/Undefined,33.178331,-116.97159,CA,Jul,0,2009
415,17CALIBER,1.0,Equipment Use,46.6711,-92.5881,MN,Apr,0,2012
416,1191,4.0,Debris Burning,37.6,-97.52,KS,Feb,0,2015
417,JENKINS FORK #2,6.0,Arson,38.09469758,-81.18977161,WV,Apr,0,2013
418,R7,1.0,Children,47.8666,-95.1336,MN,Mar,0,1995
419,2NDCHANCE,130.0,Debris Burning,45.2155,-107.6201,MT,Oct,0,2003
420,FY2013-PIERCE-004,1.1,Debris Burning,31.46638889,-82.23573056,GA,Jan,0,2013
421,FY2012-BULLOCH-044,15.04,Debris Burning,32.32505456,-81.89207404,GA,Feb,0,2012
422,30157,5.0,Debris Burning,35.57558333,-94.92695001,OK,Mar,0,2011
423,HOTSPRINGS,2.0,Debris Burning,43.0083,-108.8354,WY,Apr,0,1996
424,SCHOLHOUSE,47.0,Debris Burning,33.1667,-116.6342,CA,Jan,1 days 00:00:00.000000000,1992
425,CENTURY,1.0,Miscellaneous,34.29972222,-118.27,CA,Oct,0,2008
426,TOAD,1390.0,Lightning,37.70666667,-111.8302778,UT,Aug,63 days 00:00:00.000000000,2007
427,JIM CREEK,2.7,Debris Burning,48.35331,-119.20617,WA,Feb,0,2015
428,FIVE STAR,153.0,Missing/Undefined,38.385,-93.666667,MO,Mar,0,2012
429,HENDERSON - 068,1.0,Debris Burning,32.26045515,-94.21443691,TX,Feb,0,2009
430,LMU LGT 56,2.0,Lightning,40.95655,-120.92275,CA,Aug,0,1999
431,SUNDANCE,10.0,Lightning,37.1983,-108.7307,CO,Jun,0,2001
432,GARCIA 2,2.0,Arson,39.49388889,-123.0936111,CA,Sep,6 days 00:00:00.000000000,1998
433,SHELL,1.0,Lightning,33.585,-109.4733333,AZ,Jul,2 days 00:00:00.000000000,1998
434,W.PRYORS,5.0,Lightning,45.3166,-108.584,MT,Jul,2 days 00:00:00.000000000,1996
435,LOVE CEM. RD.,2.0,Miscellaneous,37.3532486,-88.16657257,KY,Nov,0,2013
436,4.72014E+12,1.0,Railroad,30.5069631,-88.95722031,MS,Jul,0,2014
437,BALL HILL,15.0,Debris Burning,37.56805556,-91.37972222,MO,Mar,0,2007
438,CR 392 (07),2.0,Miscellaneous,30.2696,-85.1999,FL,Mar,0,2012
439,RL036,3.0,Arson,48.1225,-95.5536,MN,Apr,0,2008
440,KENTON,15.0,Arson,33.3167,-110.4342,AZ,May,2 days 00:00:00.000000000,2005
441,HAZ HOGS,1.0,Debris Burning,43.2089,-102.7844,SD,Feb,0,2012
442,BLACK CREEK,2.0,Campfire,33.34583333,-97.59583333,TX,Mar,1 days 00:00:00.000000000,2005
443,HORSESHOE LAKE,2.6,Miscellaneous,48.1113,-114.6507,MT,Sep,0,2009
444,AIRPORT 1,4.0,Arson,41.0481,-123.6728,CA,Jul,0,2014
445,THIRTY,1.0,Miscellaneous,36.373483,-88.85985,TN,Jun,0,2011
446,TWO FINGER,27.0,Arson,36.72,-84.34166667,KY,Mar,0,1995
447,PARKER CANYON,1.0,Campfire,31.42833333,-110.4505556,AZ,May,0,2007
448,20126,40.0,Arson,34.7875,-95.83444444,OK,Jul,0,2012
449,05-02-NOV/MORRIS FIRE-1807,1.5,Debris Burning,30.3864,-82.2025,FL,Dec,0,2010
450,HAMPTON 5 (53),30.0,Arson,28.2821,-81.9995,FL,May,0,2013
451,RUBY,2.0,Miscellaneous,38.16083333,-120.2441667,CA,Jun,1 days 00:00:00.000000000,2007
452,CUTTING TORCH FIRE,4.0,Miscellaneous,35.7575,-89.48283,TN,Apr,0,2007
453,SLASH,1.5,Lightning,42.88333333,-122.6833333,OR,Aug,1 days 00:00:00.000000000,2013
454,RL037,1.5,Debris Burning,47.8744,-94.9836,MN,Apr,0,2004
455,PINE WOOD (5),5.0,Arson,27.8586,-80.5224,FL,Oct,0,2010
456,RL 337,1.5,Arson,47.8806,-94.8939,MN,Apr,0,2015
457,HWY. 157,18.9,Debris Burning,35.03595,-88.91901700000001,TN,Mar,0,2010
458,EL MIRAGE,20.0,Miscellaneous,34.6922,-117.5356,CA,Aug,0,2005
459,FFS 136/ 184 WF,4.3,Missing/Undefined,25.987958,-80.492903,FL,Mar,0,2015
460,LAWN CHAIR,2.0,Missing/Undefined,35.83265,-78.59518333,NC,Feb,0,2011
461,NO ACCESS,2.5,Miscellaneous,33.3417,-112.2124,AZ,May,0,2000
462,CEDAR CANYON,120.0,Debris Burning,36.5972,-96.3836,OK,Mar,0,2007
463,SPAR PEAK,3.0,Lightning,48.22333333,-115.9883333,MT,Jul,0,1994
464,COUNTY LINE,2.5,Lightning,34.5,-104.066667,NM,Jul,0,2011
465,NORTHCINDR,64.0,Lightning,43.23469,-115.95306,ID,Jul,1 days 00:00:00.000000000,2000
466,TREE,1.0,Arson,45.6916,-107.5312,MT,Mar,0,1999
467,CALPAC4,4.0,Arson,41.0332,-123.6512,CA,Jul,0,1999
468,415 POWERLINES (64),4.0,Lightning,28.9279,-81.1449,FL,Jul,0,2015
469,LOUISIANA MAN,2.0,Arson,31.03416667,-89.03361111,MS,Nov,3 days 00:00:00.000000000,1999
470,FY2000-GORDON-066,4.86,Arson,34.4644,-84.9869,GA,Mar,0,2000
471,ORGAN,13804.0,Lightning,32.2834,-107.1672,NM,Jun,18 days 00:00:00.000000000,1994
472,POTTER 2,5.0,Lightning,35.5603,-101.7264,TX,Jul,0,1997
473,WHITE,5.0,Debris Burning,45.5386,-97.0623,SD,Apr,0,2001
474,IRON HAWK,2.0,Arson,46.3886,-100.5875,ND,Mar,0,2008
475,COOPERS CR.,5.0,Debris Burning,35.46692,-83.38553,NC,May,1 days 00:00:00.000000000,2008
476,25 MILE II,2096.0,Miscellaneous,48.0072,-120.2425,WA,Jul,118 days 00:00:00.000000000,2013
477,RND BALE 2,1.0,Miscellaneous,48.1103,-105.2097,MT,Aug,0,1995
478,(MA) ROSEMARY ONE (433),40.0,Lightning,27.1714,-80.3775,FL,Jul,0,2010
479,NE 30136,4.0,Arson,35.7083,-94.6808,OK,Mar,0,2010
480,7059,30.0,Debris Burning,31.23718333,-95.52326667,TX,Nov,0,2014
481,COOPER CREEK,2.0,Campfire,44.14166667,-86.39166667,MI,Sep,0,1996
482,VAN10310565,3.0,Equipment Use,35.7055,-92.5757,AR,Mar,0,2014
483,ARMIGO,1.5,Lightning,34.06833333,-108.5841667,NM,Aug,2 days 00:00:00.000000000,2000
484,WNA 19,60.0,Lightning,39.8417,-119.4422,NV,Sep,0,2011
485,77TH RD(61),1.0,Debris Burning,30.0086,-82.9029,FL,Jan,0,2012
486,LINDEN - 6147,1.0,Arson,32.84175,-94.92268333,TX,Jul,0,2012
487,FLARE,2.0,Arson,40.584779,-73.884935,NY,Feb,0,1993
488,MOSS SPRINGS,2.5,Lightning,45.29222222,-117.7013889,OR,Jul,4 days 00:00:00.000000000,2006
489,POWERLINES,57.7,Powerline,42.8692,-113.7228,ID,Jul,4 days 00:00:00.000000000,2005
490,INVERNESS (26),2.5,Arson,26.7213,-81.2184,FL,Oct,0,2013
491,REFUSED FIRE,1.0,Debris Burning,35.42,-106.4519,NM,Mar,0,2008
492,PRIVATE FARM RD,16.0,Debris Burning,38.78046069,-82.14759424,WV,Jul,1 days 00:00:00.000000000,1999
493,STILES COMPLEX,67008.0,Missing/Undefined,32.835556,-103.437778,NM,Mar,2 days 00:00:00.000000000,2008
494,FY2000-MILLER-047,0.65,Debris Burning,31.1903,-84.5752,GA,Feb,0,2000
495,LONG BRANCH,225.0,Miscellaneous,31.41666667,-88.86666667,MS,Apr,0,1996
496,FY2001-DECATUR-053,1.85,Smoking,30.9161,-84.6333,GA,Feb,0,2001
497,FY2002-FLOYD-044,18.17,Arson,34.1216,-85.1902,GA,Nov,0,2001
498,CACHE,2.0,Lightning,41.0962,-109.213797,WY,Sep,4 days 00:00:00.000000000,2007
499,MOSS BUFF 18,2.5,Debris Burning,29.09666667,-81.84833333,FL,Feb,0,2000
500,BUNYARD,1.5,Arson,41.7031,-120.2078,CA,Oct,1 days 00:00:00.000000000,2009
501,MOSELEY MOUNTAIN FIRE,6.0,Fireworks,36.15235,-81.64301666,NC,May,0,2014
502,JOHN DEERE,1.0,Lightning,45.5442,-104.0653,MT,Aug,0,2005
503,MACK LAKE,7.0,Arson,30.08833333,-84.62666667,FL,May,0,1998
504,EJ RANCH,60.0,Lightning,32.9117,-105.0403,NM,Jul,2 days 00:00:00.000000000,2011
505,S5WEST BOUINK MTN,10.0,Arson,36.4976,-84.0349,TN,Nov,0,2009
506,OAK II,5.0,Arson,39.45583333,-122.9402778,CA,Oct,0,1996
507,TALLULAH RIVER #3,39.0,Arson,34.93166667,-83.54861111,GA,Mar,2 days 00:00:00.000000000,2007
508,CARIBOU,35.0,Children,46.88333474,-67.93333373,ME,May,0,1993
509,LITTLE SAL,9.0,Lightning,39.3666,-108.584,CO,Aug,2 days 00:00:00.000000000,1994
510,NEVADA.,12.0,Equipment Use,38.95111111,-120.4336111,CA,Jul,0,2003
511,FLATIRON,35.0,Powerline,43.0166,-115.6842,ID,Jun,0,1995
512,LILLIAN,150.0,Arson,35.3186,-95.82,OK,Apr,0,2006
513,ROLLOVER CREEK,1.0,Missing/Undefined,35.13733333,-77.21416667,NC,Feb,0,2011
514,LONG POND,275.0,Debris Burning,38.38472222,-76.03805556,MD,Feb,0,2008
515,DUNN,3.0,Arson,44.2106,-99.7886,SD,Mar,0,2012
516,DUMP,10.0,Miscellaneous,34.28388889,-118.4,CA,Jan,0,2003
517,OREO LANE,1.0,Debris Burning,41.11917,-75.33166999999999,PA,Apr,0,2012
518,1058,12.0,Miscellaneous,32.51423132,-88.58962174,MS,Oct,0,2015
519,BARE MT,33362.6,Lightning,64.1719,-156.6764,AK,Jun,59 days 00:00:00.000000000,2015
520,FY2002-HOUSTON-037,137.0,Debris Burning,32.4584,-83.5088,GA,Feb,0,2002
521,HUNSINGER,8.0,Lightning,41.13055556,-120.7888889,CA,Jul,1 days 00:00:00.000000000,1999
522,COYOTE,56.0,Arson,35.983867,-118.8871,CA,Jul,0,2010
523,LUCY BROOK,139.0,Miscellaneous,44.07138889,-71.19722222,NH,Nov,1 days 00:00:00.000000000,2004
524,RUNNER,363.0,Equipment Use,45.2397,-100.984,SD,Aug,0,2012
525,OTA 144,0.6,Arson,43.2342,-116.035,ID,Jul,0,2011
526,FY2012-GRADY-023,1.0,Debris Burning,31.05511933,-84.23353313,GA,Mar,0,2012
527,VALDEZ FIRE,0.9,Arson,35.7331,-94.54,OK,Jan,0,2015
528,RIGHT FLAN,2.0,Lightning,36.4634,-105.4647,NM,Aug,0,2000
529,A1302056,35.0,Smoking,42.0372,-96.2847,NE,Apr,0,2002
530,3RD KENNDEY,1.0,Arson,35.080833,-87.230583,TN,Nov,0,2013
531,GREENBRIAR ESTATES  (55),5.6,Arson,30.0444,-81.5845,FL,Apr,0,2012
532,MINE,146.09,Miscellaneous,37.62,-91.10333333,MO,Mar,1 days 00:00:00.000000000,2005
533,ALDRICH BRANCH #2,224.0,Arson,37.30563104,-81.80807305,WV,Nov,1 days 00:00:00.000000000,2012
534,PARKER,1000.0,Lightning,45.46222222,-114.6616667,ID,Jul,93 days 00:00:00.000000000,2000
535,FALKOR,0.75,Lightning,43.16222222,-122.7361111,OR,Aug,1 days 00:00:00.000000000,2014
536,R182,1.0,Children,47.8666,-95.1336,MN,May,0,1996
537,LEWIS,1.0,Equipment Use,34.346789,-116.51735,CA,Jun,0,1998
538,JONES LOOP 485,2.0,Debris Burning,35.369767,-88.983783,TN,Mar,0,2013
539,SCONA LODGE,30.0,Arson,35.5,-84.00833333,TN,Apr,0,1997
540,HASTINGS,5.0,Children,34.17527778,-118.0708333,CA,Jul,0,2008
541,FY2011-COFFEE-066,50.3,Debris Burning,31.57602318,-82.83308319,GA,Mar,0,2011
542,SUMMIT,1.0,Smoking,39.33777778,-122.7461111,CA,Oct,0,1999
543,SAND CREEK,5.0,Miscellaneous,43.35412,-116.24078,ID,Oct,1 days 00:00:00.000000000,2012
544,OLD AIRPORT 3,0.8,Fireworks,48.1156,-105.1758,MT,Jun,0,2012
545,FY2011-CLAY-025,6.4,Lightning,31.56438218,-84.9359075,GA,Jun,0,2011
546,R16,13.0,Debris Burning,47.8666,-95.2003,MN,Mar,0,1995
547,SHIPROCK01,140.0,Children,36.7833,-108.684,NM,Mar,0,2000
548,BEN SPRINGS,1.0,Lightning,35.94444444,-106.7194444,NM,Jun,1 days 00:00:00.000000000,2006
549,SLADE ROAD,2.0,Debris Burning,36.25438333,-79.65645,NC,Nov,0,2013
550,SHOCKEY,1.0,Structure,32.6167,-116.4175,CA,Jul,0,2004
551,RRMP415,3.0,Railroad,43.24667,-115.86529,ID,Aug,0,1992
552,OAK,1.0,Debris Burning,39.162477,-121.204498,CA,Feb,0,2015
553,TP,1.0,Debris Burning,35.817833,-88.374,TN,Jun,0,2007
554,SABAL PALM (11),20.0,Lightning,26.0987,-81.6515,FL,Jul,0,2014
555,10517,446.0,Lightning,34.09183334,-94.71716665,OK,Sep,0,2011
556,KOELLING,8.0,Miscellaneous,34.2814,-96.5242,OK,Jul,0,2006
557,30389,35.0,Arson,36.00046667,-94.75208333,OK,Mar,0,2009
558,9.12014E+12,2.0,Campfire,31.36248939,-89.67220826,MS,Dec,0,2014
559,340 N. OLDENWAY,15.0,Miscellaneous,46.4264,-120.3764,WA,May,0,2007
560,KEE FIRE,2.0,Debris Burning,35.17505,-89.36079000000001,TN,Feb,0,2007
561,KEELING,0.75,Debris Burning,32.298,-109.8729,AZ,May,0,2013
562,HENDERSON - 7111,1.0,Lightning,31.87072222,-95.57558333,TX,Aug,0,2012
563,MACHINE,80.1,Missing/Undefined,64.8086,-147.6517,AK,Apr,0,2015
564,BLUEJAY 97,4.0,Lightning,32.735,-110.0133333,AZ,May,2 days 00:00:00.000000000,1997
565,JOHNSONVILLE SCHOOL ROAD 2,1.0,Debris Burning,35.3032,-79.10258333,NC,Dec,0,2012
566,BACHELOR CREEK,1.0,Lightning,65.5039,-146.0283,AK,May,1 days 00:00:00.000000000,2011
567,WAGON WHEEL,3.0,Arson,31.08333333,-89.01,MS,Apr,1 days 00:00:00.000000000,1996
568,FY2014-OCONEE-001,3.8,Debris Burning,33.74891667,-83.35502778,GA,Nov,0,2013
569,SPLINTER,8.0,Lightning,43.2903,-102.2754,SD,Jul,0,2001
570,AIRPORT,15.2,Arson,33.646283000000004,-116.1289,CA,Jun,0,2013
571,FY2013-RICHMOND-011,4.83,Debris Burning,33.34894722,-82.04959167,GA,Jan,0,2013
572,BALFOUR 2,2.0,Miscellaneous,37.925833,-121.775,CA,Oct,0,2014
573,CRA13818841,2.0,Debris Burning,35.48665,-94.37261,AR,Mar,0,2014
574,FY2002-BULLOCH-125,3.17,Arson,32.3378,-81.5277,GA,Mar,0,2002
575,OR-MAF-2014-14410,1.0,Lightning,44.62361111,-118.4905556,OR,Aug,2 days 00:00:00.000000000,2014
576,COTTONWD#2,3.0,Lightning,42.3499,-111.8841,ID,Jul,0,1996
577,JOHNNY,30.0,Lightning,36.06861111,-106.8847222,NM,Aug,28 days 00:00:00.000000000,2000
578,RL520,3.0,Miscellaneous,47.8761,-95.0178,MN,May,0,2002
579,FY2012-BLECKLEY-008,3.8,Debris Burning,32.470553499999994,-83.34063456,GA,Aug,0,2011
580,ROLLER COASTER,479.0,Debris Burning,35.2078,-96.4908,OK,Feb,3 days 00:00:00.000000000,2008
581,SALT CREEK,4.0,Powerline,43.41228,-106.28533,WY,Sep,0,2011
582,FY2001-MILLER-032,2.71,Debris Burning,31.139,-84.8745,GA,Jan,0,2001
583,TWIN PEAKS,10204.0,Lightning,38.7514,-112.7089,UT,Jul,16 days 00:00:00.000000000,2006
584,TUBE,240.0,Lightning,34.94547,-108.11457,NM,Jul,4 days 00:00:00.000000000,1994
585,FIXICO,40.0,Miscellaneous,34.9208,-96.5903,OK,Oct,0,2005
586,MT. MISERY,0.7,Missing/Undefined,34.28125,-78.04976667,NC,Feb,0,2011
587,INC 194,0.7,Lightning,44.4952778,-122.181389,OR,Aug,0,2010
588,COORS FIRE,7.5,Arson,34.937,-106.7025,NM,Oct,1 days 00:00:00.000000000,2006
589,RODGERS CREEK,3.2,Debris Burning,47.0227,-112.1549,MT,Apr,0,2009
590,PRAIRIE,1.0,Debris Burning,33.1351,-111.9707,AZ,Jul,0,1993
591,BROCKTON,1.0,Campfire,48.1461,-104.9175,MT,Mar,0,1992
592,SCISSORS,103.0,Arson,33.33333333,-86.09027778,AL,Jul,0,2000
593,CLARE 12,1.7,Missing/Undefined,43.9817,-84.79523,MI,May,0,2013
594,FY2013-MACON-014,4.14,Debris Burning,32.34950278,-83.94634444,GA,Jan,0,2013
595,IRONWOOD DR. FIRE,2.5,Miscellaneous,35.49425,-78.812283,NC,Feb,0,2015
596,BLACKHAWK,144.0,Lightning,30.46361111,-95.66805556,TX,Jul,0,2000
597,WHISKEY SP,31.5,Lightning,42.8449,-117.0432,OR,Aug,1 days 00:00:00.000000000,2003
598,TH1814,7.0,Arson,47.9917,-99.0421,ND,Apr,0,1995
599,FIVE POINT,160.0,Lightning,41.0827,-117.2846,NV,Jul,0,1997
600,TIRE,22.0,Miscellaneous,33.61805556,-82.10388889,SC,Mar,0,2007
601,HORN,30.0,Lightning,43.63141,-102.56404,SD,Sep,0,2000
602,HOLY,12.0,Miscellaneous,33.3651,-110.4357,AZ,Jul,1 days 00:00:00.000000000,2004
603,MILL DAM 2,1.0,Arson,29.17333333,-81.85166667,FL,Jun,0,1998
604,FIRST BOX,1.0,Lightning,37.34277778,-107.32916670000002,CO,Aug,6 days 00:00:00.000000000,2003
605,KEENEY,7.0,Lightning,43.9191,-117.1518,OR,Aug,1 days 00:00:00.000000000,1998
606,LAKE MOUNT,1.0,Lightning,42.341,-110.4549,WY,Sep,1 days 00:00:00.000000000,1996
607,LOOKOUT,3.6,Equipment Use,37.1241667,-101.909444,KS,Mar,0,2010
608,DUMP 2,2.0,Debris Burning,48.3032,-118.2094,WA,Jul,0,1992
609,FY2000-HALL-023,4.13,Arson,34.2926,-83.7851,GA,Feb,0,2000
610,FY2013-BALDWIN-008,1.0,Campfire,33.138225,-83.20430556,GA,Oct,0,2012
611,DEEP CREEK,1.0,Lightning,46.5053,-106.2939,MT,Aug,0,2005
612,PIPKIN HILL,5.0,Arson,34.60666667,-89.205,MS,Feb,0,1996
613,25,1.0,Smoking,37.46,-97.2,KS,Jan,0,2015
614,LANCASTER,19.0,Debris Burning,31.14694444,-94.88,TX,Feb,1 days 00:00:00.000000000,2006
615,NEW COLONY DR,0.7,Missing/Undefined,36.49585,-76.0628,NC,Jun,0,2011
616,FORNET,9.0,Arson,33.9,-116.73,CA,Jun,0,1996
617,COLD SPRINGS RANCH #470,1.0,Equipment Use,44.30167,-121.59028,OR,Aug,0,2015
618,RL523,1.0,Debris Burning,47.8777,-94.9308,MN,Apr,0,2003
619,COLVILLE,3.0,Lightning,45.105,-101.9321,SD,Jul,0,2000
620,EXCHANGE RD. 1,1.0,Debris Burning,35.452617,-88.31517,TN,Mar,0,2010
621,ROBIN CREEK 2,1.0,Lightning,48.99,-114.8333333,MT,Sep,1 days 00:00:00.000000000,1995
622,THREADGILL,33.0,Arson,35.624333,-88.50433000000001,TN,Feb,0,2007
623,SLIDE CREEK,1430.0,Lightning,46.7175,-115.1875,ID,Aug,50 days 00:00:00.000000000,2006
624,F.D.-2,1.0,Arson,35.0647,-98.6386,OK,Jul,1 days 00:00:00.000000000,2011
625,BREWSTER,5.0,Lightning,45.26,-106.37166670000002,MT,Jul,1 days 00:00:00.000000000,1996
626,HONOR,5.0,Children,43.2,-102.7852,SD,Jul,0,2002
627,TRUMP ISLAND,0.75,Miscellaneous,48.5046,-122.8365,WA,Jul,1 days 00:00:00.000000000,2013
628,GILBERT'S FIRE,15.0,Arson,35.02591666,-79.35211666,NC,Feb,0,2010
629,Q2,58.9,Debris Burning,38.38206513,-76.07179884,MD,Feb,0,2014
630,FY2015-GWINNETT-002,1.06,Debris Burning,34.05221111,-83.98704722,GA,Feb,0,2015
631,CEDAR SOUTH,851.0,Miscellaneous,42.1981,-114.8331,ID,Jul,1 days 00:00:00.000000000,2007
632,FY2002-SUMTER-037,0.95,Debris Burning,32.0301,-84.1971,GA,Apr,0,2002
633,C-138 SET2 (57),1.8,Arson,30.9516,-86.8992,FL,Jan,0,2012
634,GARRISON RIDGE,45.3,Miscellaneous,36.8469444,-93.04,MO,Apr,0,2010
635,CUBE,1.5,Arson,33.3834,-110.434,AZ,Jun,0,1993
636,8060,1.7,Debris Burning,30.896,-94.3745,TX,Aug,0,2015
637,ZION RIDGE,4.0,Debris Burning,38.5419,-83.0942,KY,Mar,0,2015
638,FIRE TOWER,12.0,Debris Burning,37.24060059,-84.83075714,KY,Apr,0,2013
639,SOUTH PINE,4.0,Lightning,39.90024,-112.5625,UT,Aug,2 days 00:00:00.000000000,1999
640,MAHOGANYMT,5.0,Lightning,41.62833333,-119.24,NV,Jul,0,2001
641,WEST SPRING CREEK,0.8,Lightning,45.37666667,-118.4783333,OR,Sep,0,1995
642,FY2014-TWIGGS-025,3.7,Campfire,32.603,-83.37952778,GA,Feb,0,2014
643,DEADMAN,5.8,Lightning,33.44733,-105.14394,NM,Jun,0,2012
644,973,3.0,Miscellaneous,31.49546789,-89.71475382,MS,Oct,0,2015
645,SLOANS RIDGE,10137.0,Lightning,44.90027778,-118.2938889,OR,Jul,26 days 00:00:00.000000000,1996
646,KILPATRICK,15.0,Miscellaneous,44.8231,-113.9858,ID,Aug,1 days 00:00:00.000000000,2006
647,LOOKOUT,1475.2,Debris Burning,36.4197,-96.408,OK,Mar,6 days 00:00:00.000000000,2010
648,FY2013-WEBSTER-014,5.5,Debris Burning,32.08247222,-84.59413889,GA,Mar,0,2013
649,RED BUG ROAD,1.0,Miscellaneous,31.30611111,-94.26472222,TX,Aug,0,2013
650,DRYWELL,1.0,Miscellaneous,33.1851,-111.8676,AZ,Jun,0,1995
651,64QBCPER00,1.0,Miscellaneous,39.8136,-104.9017,CO,Jul,0,2000
652,TEN HORSE,25.0,Powerline,43.49749,-116.2538,ID,Oct,0,1999
653,CHOCTAW #6,2.0,Arson,32.7797,-89.2686,MS,Oct,0,2015
654,WHAKATNA C,23.0,Lightning,64.9494,-156.8858,AK,Jun,2 days 00:00:00.000000000,1997
655,A1305034,2.0,Arson,42.1119,-96.3742,NE,Mar,0,2005
656,FOX,1.0,Missing/Undefined,33.0278,-104.4406,NM,Jun,0,2013
657,WATUSI,5.0,Lightning,39.9814,-108.1723,CO,Jul,3 days 00:00:00.000000000,2001
658,A1303062,1.0,Miscellaneous,42.1119,-96.3447,NE,Oct,0,2003
659,700,4.0,Arson,34.4834,-94.6836,OK,Dec,0,1995
660,LAKESIDE DR/ GLADE SPRINGS,3.0,Arson,37.73666005,-81.08548370000001,WV,Apr,0,2012
661,TH1710,1.0,Arson,47.9783,-98.0268,ND,Jun,0,2004
662,FY2011-JACKSON-016,3.49,Arson,34.0656217,-83.58125389,GA,Mar,0,2011
663,TIJUANA JOHN,746.5,Lightning,41.7781,-114.5408,NV,Aug,5 days 00:00:00.000000000,2011
664,BARONA,2.0,Debris Burning,33.0,-116.8009,CA,Aug,0,1997
665,FY2011-JOHNSON-065,14.44,Debris Burning,32.71519658,-82.77164016,GA,Feb,0,2011
666,BEAR 2,280.0,Campfire,31.37666667,-110.3663889,AZ,Apr,1 days 00:00:00.000000000,2008
667,THOMAS CREEK PRESERVE (16),18.1,Lightning,30.4841,-81.7823,FL,Aug,0,2011
668,TOWNE PARK (53),7.0,Miscellaneous,27.97,-82.0192,FL,Mar,0,2013
669,BIRTHDAY,0.9,Equipment Use,45.3253,-101.9679,SD,Nov,0,2012
670,FY2014-FANNIN-015,1.72,Debris Burning,34.89066667,-84.19397222,GA,Feb,0,2014
671,BEAR,1.0,Arson,40.701981,-122.269539,CA,May,0,2002
672,FY2015-BARROW-010,3.7,Debris Burning,33.97994444,-83.68533333,GA,Apr,0,2015
673,GROUSE,17.0,Lightning,33.311111100000005,-108.715278,NM,Jun,1 days 00:00:00.000000000,2010
674,FY2011-COFFEE-095,0.6,Lightning,31.39929754,-82.82785119,GA,Jun,0,2011
675,TRACT 84,76.0,Debris Burning,44.8572,-108.3173,WY,Mar,2 days 00:00:00.000000000,2004
676,BUCKHOLZ,4.6,Lightning,26.0517,-81.115,FL,Jul,0,2004
677,204,2.5,Lightning,43.9997,-120.9572,OR,Jun,30 days 00:00:00.000000000,2007
678,HIGHWAY E FIRE,140.0,Missing/Undefined,38.038611,-93.823056,MO,Feb,0,2004
679,BRONCO,105.0,Smoking,32.70166667,-116.5866667,CA,Jun,1 days 00:00:00.000000000,1997
680,SEWER SMOKE,2.11,Debris Burning,40.89361,-78.26583000000001,PA,Apr,0,2015
681,WOOD PILE,5.0,Debris Burning,26.22416667,-98.35916667,TX,May,1 days 00:00:00.000000000,2008
682,MANNSCHRIE,1.0,Lightning,35.1001,-98.5503,OK,Apr,0,1998
683,LAKES,6.0,Lightning,36.42,-112.2136111,AZ,May,3 days 00:00:00.000000000,2014
684,M TENT,0.6,Debris Burning,44.0728,-99.4418,SD,Aug,0,1994
685,RAILROAD,30.0,Railroad,33.65,-85.64083333,AL,Nov,18 days 00:00:00.000000000,1999
686,FY2012-CRISP-027,2.36,Debris Burning,31.85747535,-83.92978538,GA,Mar,0,2012
687,CASTLE RCK,1.0,Lightning,40.2999,-112.7175,UT,Sep,0,1995
688,FY2015-LOWNDES-003,1.0,Debris Burning,30.95571389,-83.36638889,GA,Aug,0,2014
689,PERKINS,20.0,Lightning,41.75833333,-123.4638889,CA,Aug,2 days 00:00:00.000000000,2004
690,PEABODY,1.1,Debris Burning,37.2136,-108.6776,CO,Jul,0,1995
691,WILDCAT TRAIL,2.0,Campfire,35.477517,-85.10378299999999,TN,Sep,2 days 00:00:00.000000000,2010
692,FY2013-BROOKS-027,4.7,Debris Burning,30.88577222,-83.448,GA,Mar,0,2013
693,GRAY,0.8,Arson,39.31111111,-121.8077778,CA,Jun,0,2001
694,CLEAR FORK,904.0,Arson,37.95486434,-81.46703892,WV,Mar,3 days 00:00:00.000000000,2000
695,ALTHOUSE,10.7,Miscellaneous,42.06222222,-123.5138889,OR,May,1 days 00:00:00.000000000,2002
696,FORBES TRAIL (58),2.0,Lightning,27.1064,-82.3314,FL,Sep,0,2014
697,HUNGRY,809.0,Lightning,36.565,-113.9825,AZ,Jul,3 days 00:00:00.000000000,2006
698,1262,2.0,Debris Burning,39.001211,-83.08103299999999,OH,May,0,2015
699,FY2012-BUTTS-007,1.5,Debris Burning,33.20020374,-83.83547553,GA,Jan,0,2012
700,THOMAS,0.7,Children,41.569583,-120.408417,CA,Sep,0,2013
701,868,60.0,Miscellaneous,31.32979703,-90.48136762,MS,Oct,0,2015
702,VALLEY,10.0,Arson,43.5311,-100.7372,SD,Jul,0,2005
703,NE300013A,1.0,Arson,35.725,-94.5708,OK,Jan,0,2014
704,LARABEE /,1.5,Campfire,46.43166667,-112.4416667,MT,Aug,1 days 00:00:00.000000000,1995
705,LITTLE CANE CREEK FIRE,5.0,Debris Burning,36.69131,-84.16338,KY,Nov,0,2011
706,VIRGINIA,10.0,Arson,33.19444444,-86.14861111,AL,Mar,0,2000
707,POWER,517.0,Arson,35.45,-118.78166670000002,CA,May,0,1993
708,RD07-09,1448.5,Children,34.43723,-85.58283,AL,Dec,3 days 00:00:00.000000000,2006
709,KORB 1 FIRE,33.0,Debris Burning,30.19471667,-96.85716667,TX,Jun,0,2013
710,WALKER,86.1,Equipment Use,45.8472,-100.6747,SD,Mar,0,2015
711,BIG BRANCH,1.0,Debris Burning,37.135,-83.3199,KY,Nov,0,2015
712,10303,6.0,Arson,34.45388889,-95.13083333,OK,Nov,0,2012
713,FY2014-LUMPKIN-020,2.1,Debris Burning,34.60486667,-84.06579167,GA,Mar,0,2014
714,COUCH,4.0,Arson,42.2347,-96.435,NE,Apr,0,2015
715,RODEO,1.0,Lightning,35.97833333,-118.17166670000002,CA,Aug,1 days 00:00:00.000000000,1996
716,WOODS,1.0,Structure,40.87845,-121.674633,CA,Aug,0,2012
717,SELLECK,5.0,Railroad,42.7269,-113.1317,ID,Sep,1 days 00:00:00.000000000,2000
718,POSEY HOLLOW 2,1.7,Arson,34.64305556,-94.13333333,AR,Apr,0,2013
719,ALDER,1.4,Debris Burning,35.84111111,-121.4008333,CA,Feb,0,2012
720,CRUMB HOLLOW,10.0,Arson,35.9075,-83.13722222,TN,Oct,0,2001
721,ORCHARD ADDITION,0.8,Debris Burning,37.40585212,-80.80637502,WV,Feb,0,2001
722,E WILLIAMS,269.5,Miscellaneous,45.1183,-101.8446,SD,Sep,0,2005
723,SIXTEEN BOXES,2.92,Debris Burning,40.78583,-78.40139,PA,Apr,0,2015
724,CORPORATION 98,1.0,Lightning,41.13055556,-120.1975,CA,Aug,1 days 00:00:00.000000000,1998
725,RL 128,1.5,Children,48.0142,-94.8217,MN,May,0,2013
726,REICHE,5.0,Miscellaneous,44.398667,-71.010778,ME,May,0,2013
727,ONEIDA FARMS,0.8,Arson,45.86357,-89.16507,WI,Apr,0,2012
728,RED TAIL,1.0,Fireworks,46.1728,-100.6606,ND,Jun,0,2013
729,ERSOLE (38),1.0,Lightning,29.2943,-82.6829,FL,Jun,0,2011
730,DUMP,2.0,Arson,35.09083333,-84.38166667,TN,Feb,0,2005
731,HORSE CREEK,1.9,Lightning,37.86,-111.8613889,UT,Jun,2 days 00:00:00.000000000,2006
732,MIESTER,6.7,Miscellaneous,35.2333,-96.2417,OK,Feb,0,2006
733,D-5 SPRING,1.0,Arson,33.8434,-110.0923,AZ,May,0,2003
734,UNKNOWN,20.0,Debris Burning,37.9824,-103.7482,CO,Nov,0,2013
735,FLOW THOMAS FIRE,2.5,Missing/Undefined,35.3454,-79.05685,NC,Feb,0,2011
736,THORNBUTTE,8.0,Lightning,47.85,-108.7007,MT,Aug,1 days 00:00:00.000000000,1996
737,FY2011-CARROLL-024,3.5,Arson,33.70930194,-84.93987083,GA,Feb,0,2011
738,PATRICIA L DANIEL,2.0,Debris Burning,35.013717,-87.69123,TN,Feb,0,2009
739,FY2011-MCINTOSH-081,1.5,Arson,31.552444800000004,-81.40381773,GA,Jun,0,2011
740,7.92014E+12,1.0,Campfire,32.59783425,-89.5746697,MS,Jan,0,2014
741,162 CAR,1.0,Arson,32.71388889,-93.28361111,LA,Oct,0,2000
742,WEAVER ROAD,1.5,Debris Burning,43.1336,-123.8669,OR,May,1 days 00:00:00.000000000,2009
743,HOUND,1.5,Miscellaneous,35.07166667,-111.6116667,AZ,Nov,0,1997
744,MEADOW FORK,2.0,Children,37.96893361,-81.8843037,WV,Mar,0,2014
745,LOWE,17.0,Miscellaneous,31.21083333,-93.94944444,TX,Jan,0,2013
746,STAR,16761.0,Miscellaneous,39.05,-120.5186111,CA,Aug,0,2001
747,MOOSE,2.0,Lightning,44.26416667,-111.1916667,ID,Aug,1 days 00:00:00.000000000,2003
748,RL122,1.3,Debris Burning,47.8677,-94.9111,MN,Apr,0,1999
749,STATE GAME LANDS,11.0,Arson,41.26333,-75.68028000000001,PA,Apr,0,2012
750,BEAVER CREEK #7,1.0,Arson,41.1004,-123.7126,CA,Jul,0,2007
751,SCHRIENER,7.0,Lightning,44.89638889,-122.0186111,OR,Aug,7 days 00:00:00.000000000,2008
752,MAIN,4.0,Debris Burning,47.9908,-108.706,MT,Apr,0,2008
753,L H DITCH,1.0,Arson,43.0033,-108.4804,WY,Mar,0,2006
754,MOOSE TWO,2.2,Lightning,46.12277778,-114.9005556,ID,Jul,2 days 00:00:00.000000000,2014
755,HECK # 9,3.5,Arson,41.0267,-123.6503,CA,Jun,1 days 00:00:00.000000000,2015
756,HILLSIDE LANE,4.0,Debris Burning,35.335,-79.175,NC,Feb,0,2012
757,HANG DOG,1.0,Lightning,38.375,-109.0983333,UT,Jul,0,2006
758,SAW 2,156.0,Equipment Use,31.19611111,-95.35111111,TX,Apr,6 days 00:00:00.000000000,2009
759,FISHER VALLEY ROAD FIRE 2,3.0,Arson,36.590583,-82.970733,TN,Apr,0,2015
760,DUSTDEVIL,1.0,Miscellaneous,33.2834,-112.179,AZ,Jun,0,1998
761,HOUSE ROAD,6.0,Debris Burning,48.8179,-118.1637,WA,Apr,152 days 00:00:00.000000000,2015
762,ADAMS,1040.0,Lightning,32.042778000000006,-110.119167,AZ,Jun,4 days 00:00:00.000000000,2008
763,650 FIRE,1.0,Debris Burning,38.5838889,-82.6994444,OH,Oct,1 days 00:00:00.000000000,2010
764,GRIZZLY RIDGE,1.5,Debris Burning,48.48111111,-114.0327778,MT,Jul,1 days 00:00:00.000000000,2007
765,FIELDS,1.0,Smoking,31.9051,-111.8596,AZ,Aug,0,2003
766,E 22ND ST / SAMPSON ST,1.0,Missing/Undefined,39.1572,-121.5661,CA,Sep,0,2013
767,SHAVER RD,10.0,Arson,34.78416667,-76.87138889,NC,Sep,0,2011
768,NORTH CASH CREEK,38.9,Miscellaneous,46.42083333,-103.835,ND,Jul,0,2008
769,UPPER KINKAID,0.8,Lightning,48.30716,-118.87737,WA,Jul,2 days 00:00:00.000000000,2014
770,LIVINGSTON - 7,4.0,Powerline,30.41752778,-95.47122222,TX,Jan,0,2009
771,FY2011-CHATTOOGA-064,49.0,Arson,34.45410528,-85.44846805,GA,Mar,1 days 00:00:00.000000000,2011
772,RL240,2.0,Miscellaneous,47.8758,-94.9069,MN,Apr,0,2002
773,WHITES LAKE 1,1.0,Equipment Use,36.120833000000005,-89.56836700000001,TN,Oct,0,2012
774,LEGACY (53) **,50.0,Arson,27.661,-81.6623,FL,Mar,0,2012
775,BUNKER HILL HGTS,12.0,Children,39.31934793,-78.0250247,WV,Nov,0,2001
776,HEADSET,1.0,Equipment Use,35.3873,-96.8315,OK,Aug,0,2011
777,RODEO CRK,5542.0,Lightning,40.908,-116.4926,NV,Aug,3 days 00:00:00.000000000,2001
778,SANDDUNE 1,5.0,Lightning,39.6333,-112.3341,UT,Jul,0,1995
779,POINTSPRNG,15.0,Lightning,42.2499,-113.2342,ID,Aug,0,1993
780,GRANDMA'S,0.8,Miscellaneous,33.0834,-111.7507,AZ,Jun,1 days 00:00:00.000000000,1996
781,PINEY CREEK,9.0,Arson,36.82888889,-84.56555556,KY,Nov,1 days 00:00:00.000000000,2003
782,POOL HOUSE,8.0,Campfire,36.11166667,-78.72483333,NC,Apr,0,2013
783,WESTWOOD,9.0,Debris Burning,39.6133,-110.8443,UT,Jun,0,2005
784,PRIMESTAR,1.3,Miscellaneous,36.9872,-94.8164,OK,Feb,0,2010
785,FY2003-HENRY-009,0.77,Children,33.42733258,-84.26813761,GA,Sep,0,2002
786,WYMAN,10.0,Lightning,46.33972222,-113.7858333,MT,Aug,3 days 00:00:00.000000000,2002
787,CLOVERDALE,1.0,Arson,38.6816,-123.051667,CA,Aug,0,2013
788,MILE POST,2.0,Smoking,33.2834,-110.3507,AZ,Jun,0,1992
789,10336,50.0,Debris Burning,34.34699999,-95.61583335,OK,Nov,0,2010
790,SHAMROCK,5000.0,Arson,35.9392,-96.603,OK,Jan,0,2006
791,FIVE,316.0,Equipment Use,34.88166667,-118.9266667,CA,Jul,0,1999
792,A1304015,30.0,Miscellaneous,42.0722,-96.4389,NE,Apr,0,2004
793,FY2012-MILLER-004,1.0,Debris Burning,31.10069508,-84.66822463,GA,Aug,0,2011
794,FY2014-WILCOX-008,10.4,Debris Burning,32.06476667,-83.504875,GA,Mar,0,2014
795,BIKE,21.0,Campfire,35.33,-80.03722222,NC,Aug,1 days 00:00:00.000000000,2015
796,FY2002-MCINTOSH-034,1.25,Debris Burning,31.5493,-81.3742,GA,Mar,0,2002
797,STATE,1.0,Equipment Use,33.706189,-117.284019,CA,Nov,0,1998
798,FOSTER CREEK,375.0,Lightning,47.9632,-119.6866,WA,Jun,15 days 00:00:00.000000000,2014
799,2.92014E+12,15.0,Campfire,31.93771379,-90.41022057,MS,Nov,0,2014
800,CARIBOU,28.0,Campfire,41.03166667,-122.97,CA,Sep,13 days 00:00:00.000000000,2012
801,SHADY GROVE(21),1.0,Debris Burning,29.587,-82.7668,FL,Jun,0,2015
802,LIVINGSTON - 580,2.0,Powerline,30.33118333,-95.09391667,TX,Jun,0,2011
803,CR 204  (55),4.3,Miscellaneous,29.6459,-81.382,FL,May,0,2012
804,RIVERSIDE FIRE,1.8,Miscellaneous,46.38269,-90.14295,WI,Apr,0,2015
805,71,2.0,Debris Burning,38.88,-95.2,KS,Mar,0,2015
806,JALEPENO,15.0,Debris Burning,36.4242,-95.9958,OK,Dec,0,2005
807,PAUL,2.0,Debris Burning,44.873374,-69.634473,ME,May,0,2015
808,BROOKLYN BAY (10),1.0,Powerline,29.7995,-82.0128,FL,Feb,0,2013
809,197TH,1.0,Miscellaneous,25.62778,-80.52083499999999,FL,Jan,0,1992
810,KELSO,2.0,Equipment Use,35.5513,-118.2467,CA,Jul,0,2003
811,CLE4694353,4.0,Debris Burning,33.8978,-92.176,AR,Mar,0,2014
812,ARCH CREEK,6.0,Lightning,44.2236,-104.4338,WY,Aug,0,2015
813,KIOWA UNIT 34-3,3.0,Equipment Use,35.0703,-98.035,OK,Aug,0,2009
814,KELSO,2.3,Arson,35.3778,-118.2614,CA,Oct,1 days 00:00:00.000000000,2013
815,SCOUT,3.0,Children,33.40083333,-97.61944444,TX,Mar,0,2003
816,9021,4.8,Debris Burning,30.3924,-94.20135,TX,Jan,0,2014
817,HWY 77 AND NW 150TH,3800.0,Lightning,38.0075,-96.924722,KS,Jul,1 days 00:00:00.000000000,2012
818,MINERAL CREEK,1.0,Lightning,38.24055556,-105.16944440000002,CO,Aug,2 days 00:00:00.000000000,2002
819,RIVERTON,12.0,Campfire,43.15875,-112.44342,ID,Aug,1 days 00:00:00.000000000,2010
820,097 LOOP,54.0,Miscellaneous,30.98888889,-93.00111111,LA,Aug,0,2011
821,FIREBOX,0.6,Lightning,33.8434,-109.8673,AZ,Jun,0,2000
822,TEEC NOS POS,1.0,Equipment Use,36.9261,-109.1761,AZ,Oct,0,2015
823,RAINBOW,4382.6,Arson,33.8667,-109.9673,AZ,Jun,9 days 00:00:00.000000000,1999
824,ROLAND,3.0,Arson,32.702357,-89.075232,MS,Jun,0,2007
825,ELECTRA,15.0,Arson,38.313503,-120.720517,CA,Aug,0,2006
826,FY2011-POLK-076,18.43,Arson,34.04398219,-85.39119914,GA,Feb,0,2011
827,DUETTE RD. (41),6.8,Lightning,27.5538,-82.0774,FL,Jul,0,2012
828,HORSESHOE FIRE,2.0,Debris Burning,38.63944444,-82.61527778,OH,Apr,1 days 00:00:00.000000000,2005
829,STOMPING,11.0,Miscellaneous,33.3681,-110.4348,AZ,Jul,1 days 00:00:00.000000000,2001
830,MARCOOT CHARCOAL #3,9.0,Miscellaneous,37.56666667,-91.30833333,MO,Jul,0,1999
831,FY2012-TAYLOR-005,1.22,Debris Burning,32.40743502,-84.23530613,GA,Aug,0,2011
832,SOUTHTWIN,22.8,Debris Burning,47.2213,-95.657,MN,Apr,0,2003
833,TAG RIVER3,70.0,Lightning,65.7346,-159.1327,AK,Jul,10 days 00:00:00.000000000,2002
834,EASEMENT,1.0,Debris Burning,34.5,-111.25333329999998,AZ,Mar,0,1996
835,BROWN,1565.0,Lightning,25.422778,-80.727082,FL,May,7 days 00:00:00.000000000,1999
836,WORK ALOT,37.22,Lightning,34.220447,-103.989111,NM,Aug,0,2011
837,1.09201E+13,5.0,Campfire,30.9253674,-89.55465785,MS,Feb,0,2014
838,POPHER CREEK,5.0,Arson,31.20416667,-94.40416667,TX,Oct,2 days 00:00:00.000000000,2003
839,8101,2.98,Campfire,30.99215,-94.43488333,TX,Oct,0,2015
840,1.09202E+13,2.0,Debris Burning,30.76599524,-89.50500290000001,MS,Feb,0,2015
841,KEEBLE PIT,8.0,Children,44.0725,-99.444,SD,Apr,0,2001
842,"WILLIE POWELL RD, AL",13.0,Debris Burning,32.057064000000004,-87.50803359999999,AL,Mar,0,2011
843,15-0001,10.0,Miscellaneous,37.34,-96.67,KS,Jan,0,2015
844,FBI 2 FIRE,646.0,Arson,27.0503,-81.0915,FL,Apr,3 days 00:00:00.000000000,2007
845,WATER TANK,1.5,Debris Burning,37.1711,-107.5889,CO,Jan,0,2000
846,DAVE,5.5,Lightning,33.73388889,-108.985,NM,Jul,5 days 00:00:00.000000000,2000
847,THREE LINKS,115.0,Lightning,46.14166667,-115.08944440000002,ID,Jul,91 days 00:00:00.000000000,2007
848,FY2011-LUMPKIN-040,1.9,Debris Burning,34.47773117,-84.08240288,GA,Mar,0,2011
849,FLINT,2.0,Missing/Undefined,39.1917,-119.6814,NV,Jul,0,2010
850,SWIFT RIVER,5.0,Lightning,61.52,-155.0,AK,Jul,4 days 00:00:00.000000000,2013
851,DEVIL,2.2,Lightning,40.91805556,-123.3183333,CA,Jun,1 days 00:00:00.000000000,2008
852,NORTH OTTER,1.0,Lightning,30.27305556,-82.54805556,FL,May,0,2007
853,FY2002-GILMER-020,1.7,Miscellaneous,34.5671,-84.5934,GA,Nov,0,2001
854,CHASE,15.5,Children,33.3517,-110.4532,AZ,Jun,0,1998
855,LOBATO,1.0,Lightning,36.11194444,-106.29416670000002,NM,Jun,2 days 00:00:00.000000000,2008
856,3 K PUMPHS,1.0,Fireworks,46.2999,-120.3762,WA,Jul,0,2002
857,8.92015E+12,15.0,Campfire,32.71712157,-89.75545541,MS,Jan,0,2015
858,ANDERSON BEND2,5.0,Arson,36.293783000000005,-83.189533,TN,Nov,1 days 00:00:00.000000000,2012
859,RIVER,15.0,Miscellaneous,36.7358,-114.2027,NV,May,2 days 00:00:00.000000000,1997
860,BORADER 25,80.0,Miscellaneous,32.648,-116.901,CA,Jul,0,2007
861,CABIN,7.0,Children,32.86,-116.6983333,CA,Nov,0,1993
862,VOLCANO,1.0,Lightning,38.4333,-105.3172,CO,Jun,0,1992
863,MELTING FENCE,1.0,Debris Burning,35.2493,-79.72468333,NC,Jan,0,2014
864,58-TRILLIUM FIRE-0355,1.0,Miscellaneous,27.2725,-82.4176,FL,Nov,0,2010
865,BEAR,17.0,Campfire,31.39638889,-110.3644444,AZ,Jun,0,2003
866,OPIE,85.0,Arson,30.59194444,-89.10777778,MS,Mar,3 days 00:00:00.000000000,2006
867,CEMETARY,2.0,Debris Burning,33.0334,-111.8507,AZ,Jun,0,1993
868,BUCKS BR.,34.0,Arson,37.91516438,-81.89256732,WV,Jan,0,2005
869,HOT ASH FIRE,2.0,Children,35.90833333,-77.61,NC,Jan,0,2013
870,SCALES,5.0,Lightning,39.66583333,-120.9591667,CA,Jun,0,2008
871,182ND AVE (42),20.0,Miscellaneous,29.0056,-81.8102,FL,Nov,0,2012
872,ASH,10.0,Campfire,44.1728,-110.9228,WY,Sep,12 days 00:00:00.000000000,2008
873,SEPTIC SPRAY III,10.0,Debris Burning,35.62583333,-78.59083333,NC,Nov,0,2012
874,CAT BRANCH,1.5,Lightning,30.115,-84.815,FL,Jul,0,1998
875,HALFMOON 16,346.0,Campfire,29.14805556,-81.81638889,FL,Apr,9 days 00:00:00.000000000,2013
876,FY2013-TWIGGS-027,1.03,Debris Burning,32.6475,-83.28069444,GA,Feb,0,2013
877,30315,3.0,Debris Burning,36.38184999,-94.8149833,OK,Apr,0,2010
878,FY2012-TAYLOR-028,1.07,Debris Burning,32.54023287,-84.28328345,GA,Feb,0,2012
879,OLDSMOBILE,52.0,Debris Burning,36.4475,-96.1342,OK,Mar,1 days 00:00:00.000000000,2010
880,YAK,16.0,Lightning,47.43972222,-120.4761111,WA,Jul,4 days 00:00:00.000000000,2013
881,ASSIST 6,600.0,Equipment Use,47.233,-107.967,MT,Aug,5 days 00:00:00.000000000,1996
882,PITTMAN,5.0,Arson,28.99472222,-81.66055556,FL,Jun,1 days 00:00:00.000000000,2000
883,HESPERIA,1.0,Equipment Use,34.34277778,-117.42305559999998,CA,Aug,0,2006
884,848,2.0,Miscellaneous,31.80395186,-89.59193755,MS,Oct,0,2015
885,PHEASANT,1.0,Arson,48.0039,-102.5258,ND,May,0,2015
886,TWO ANGELS,1.0,Lightning,40.9697,-117.945,NV,Jul,0,2006
887,WHITES FERRY ROAD,2.0,Arson,41.5075,-75.87111,PA,Apr,0,2014
888,NARROWS,2.0,Lightning,37.3856,-114.1467,NV,Aug,4 days 00:00:00.000000000,2012
889,WEST CREEK,0.8,Missing/Undefined,38.7003,-108.9444,CO,Apr,0,2011
890,WESTERN,15.0,Debris Burning,26.27027778,-98.40194444,TX,Apr,0,2006
891,PIPKIN2,8.0,Debris Burning,35.2167,-108.6173,NM,Feb,0,1992
892,APACHE,10.0,Powerline,32.4607,-103.1315,NM,Jun,0,2011
893,FY2013-HALL-006,0.6,Arson,34.25583333,-83.80766667,GA,Nov,0,2012
894,FY2001-MCINTOSH-073,30.0,Arson,31.4121,-81.2755,GA,Apr,0,2001
895,SW CR 100A (04),1.0,Debris Burning,29.931,-82.1398,FL,Mar,0,2015
896,10215,140.0,Arson,34.67533334,-95.13933333,OK,Sep,1 days 00:00:00.000000000,2010
897,FY2002-UPSON-095,1.3,Children,32.8529,-84.3204,GA,Apr,0,2002
898,DUDLEY DRIVE,1.0,Debris Burning,34.88,-77.18666667,NC,Mar,0,2001
899,FY2015-POLK-003,1.9,Arson,33.98250278,-85.33101111,GA,Aug,0,2014
900,JACKSON 2,48.0,Arson,42.94833333,-122.7883333,OR,Aug,3 days 00:00:00.000000000,1998
901,70TH (11),2.0,Lightning,26.1088,-81.5371,FL,Aug,0,2015
902,SHE BEAR MOUNTAIN,135.0,Lightning,44.70277778,-107.2430556,WY,Jun,6 days 00:00:00.000000000,2002
903,MISSAUKEE 08 - WEST FALMOUTH,1.3,Campfire,44.23483,-85.09671,MI,Jul,0,2012
904,HALLOWEEN,1.5,Miscellaneous,45.2922,-107.1748,MT,Oct,0,1999
905,BARKER,1.5,Equipment Use,40.84944,-79.46889,PA,Apr,0,2012
906,INDIANA,1.0,Lightning,45.2714,-107.6865,MT,Aug,1 days 00:00:00.000000000,2002
907,B AND C FIRE,1.0,Debris Burning,43.371358,-90.864385,WI,Jul,0,2014
908,NO NAME 160,1.0,Equipment Use,37.054865,-120.735165,CA,Nov,0,2006
909,STAMPEDE,72.0,Arson,47.9728,-118.2228,WA,Apr,6 days 00:00:00.000000000,2014
910,ML26,2.0,Children,46.1805,-93.7586,MN,May,0,2000
911,ASK FIRST,6.0,Debris Burning,30.68833333,-88.99416667,MS,Mar,10 days 00:00:00.000000000,2009
912,MICHELLES RIDGE,2.0,Arson,37.65773507,-81.23907113,WV,Apr,0,1998
913,ITALIAN SPRINGS,6.7,Lightning,37.29611111,-113.3727778,UT,Jul,2 days 00:00:00.000000000,2009
914,RL 049,1.5,Arson,47.8725,-95.0108,MN,May,0,2013
915,GRAHAM,10.2,Debris Burning,45.26167,-96.44028,MN,Apr,13 days 00:00:00.000000000,2015
916,ROAD,140.0,Debris Burning,38.51666667,-120.2766667,CA,May,2 days 00:00:00.000000000,1993
917,WEST TOLAR,1.0,Equipment Use,34.45056,-103.94855,NM,Jun,0,2011
918,MONTEREY,28.0,Missing/Undefined,36.150929,-120.372515,CA,Aug,0,2010
919,ANTONE,200.0,Lightning,34.06,-108.375,NM,Jul,47 days 00:00:00.000000000,1996
920,BLOCK D,17.8,Campfire,46.50916667,-97.28111111,ND,Sep,1 days 00:00:00.000000000,2015
921,SNOWY,3.0,Children,48.843,-100.0264,ND,Apr,0,2008
922,LITTLE CAT,0.7,Lightning,45.15056,-117.71028,OR,Jul,1 days 00:00:00.000000000,2014
923,GREASY CREEK,29.0,Arson,35.6928,-94.6878,OK,Jan,0,2014
924,PRATT SANDHILLS,6400.0,Missing/Undefined,37.681944,-97.960278,KS,Apr,0,2008
925,FY2011-MCDUFFIE-043,4.4,Lightning,33.58822471,-82.41990786,GA,Jun,0,2011
926,HAUSER,12.0,Campfire,32.68277778,-116.6341667,CA,Jul,2 days 00:00:00.000000000,2005
927,FY2011-BARTOW-044,2.0,Arson,34.33623035,-84.86607682,GA,Feb,0,2011
928,FY2012-OGLETHORPE-023,0.7,Campfire,33.83170209,-83.17232805,GA,Apr,0,2012
929,DOE CREEK,3.0,Lightning,44.98583333,-116.6011111,ID,Jul,0,2001
930,EAGLE POINT,1.0,Debris Burning,43.36679,-89.68366,WI,Apr,0,2009
931,RIZZI,10.0,Lightning,42.11382,-115.82899,ID,Jun,1 days 00:00:00.000000000,2010
932,A-10,3.0,Miscellaneous,26.1254,-97.41666667,TX,Mar,1 days 00:00:00.000000000,2002
933,MS1815,7.0,Debris Burning,47.9875,-98.8962,ND,Apr,0,1997
934,SIGN CREEK,1.0,Lightning,45.97833333,-113.6666667,MT,Aug,31 days 00:00:00.000000000,2000
935,ROMAN,1.0,Fireworks,43.0522,-102.7311,SD,Jul,0,2012
936,JONES 2,5.4,Lightning,43.7825,-117.85303,OR,Aug,1 days 00:00:00.000000000,2013
937,GOLD STRIKE,1.0,Debris Burning,38.210806,-120.684607,CA,Nov,0,2009
938,6115,7.0,Powerline,32.9061,-94.91775,TX,Aug,0,2015
939,ALESSANDRO,400.0,Miscellaneous,33.9231,-117.0614,CA,Mar,1 days 00:00:00.000000000,2007
940,06-12-ANDERSON STREET FIRE-0882,1.5,Debris Burning,30.1332,-82.7703,FL,Apr,0,2011
941,FY2011-TREUTLEN-103,4.6,Debris Burning,32.46709978,-82.56461581,GA,May,0,2011
942,POWDER HOUSE CANYON,33.4,Lightning,44.99,-120.04389,OR,Jun,3 days 00:00:00.000000000,2015
943,UNNAMED FIRE 0363,2.0,Arson,35.712525,-120.168128,CA,Oct,0,1998
944,2520,4.0,Debris Burning,26.04194444,-97.7,TX,Dec,0,2007
945,OTA 217,3.0,Arson,43.2397,-116.0272,ID,Jul,0,2011
946,133,2.0,Arson,47.9786,-99.0003,ND,Apr,0,2007
947,SABRE,65.0,Equipment Use,34.9364,-98.2847,OK,Jul,0,2006
948,BOAT DOCKS,1.3,Children,48.112,-105.2133,MT,Jul,0,1995
949,BRUSH VALLEY ROAD FIRE,1.0,Debris Burning,40.90167,-79.50389,PA,Apr,0,2015
950,30528,1.0,Arson,35.60221666,-94.86366666,OK,Dec,0,2011
951,MESQUITE,17.5,Miscellaneous,36.1503,-116.1636,NV,Sep,2 days 00:00:00.000000000,2006
952,COTTONWOOD CREEK,3.1,Lightning,46.758933,-112.857533,MT,Oct,2 days 00:00:00.000000000,2011
953,GULL LAKE,3.0,Arson,47.1519,-95.7269,MN,Apr,0,2009
954,FIVE KIDS,1.9,Children,43.0219,-102.5658,SD,Jul,0,2008
955,CRESTVIEW,1.0,Powerline,42.7364,-113.9714,ID,Jun,1 days 00:00:00.000000000,2007
956,OIL CREEK,4.0,Lightning,44.0525,-104.2647,WY,Aug,2 days 00:00:00.000000000,2008
957,ASPEN,82440.0,Miscellaneous,32.43,-110.7716667,AZ,Jun,28 days 00:00:00.000000000,2003
958,LOOKOUT TOWER ROAD,13.0,Arson,35.64944439999999,-94.0786111,AR,Mar,0,2010
959,CRANBERRY ROAD FIRE,1.0,Debris Burning,41.35,-80.08,PA,May,0,2015
960,HULL DRAW,4.6,Equipment Use,43.51581,-106.46297,WY,May,0,2012
961,BLACK EGG,0.7,Debris Burning,36.43166667,-78.83333333,NC,Mar,0,2013
962,POWERLINE FIRE(03),1.0,Debris Burning,30.2776,-85.8796,FL,May,0,2014
963,BUNYAN POINT,1184.0,Lightning,47.38527778,-112.8563889,MT,Sep,55 days 00:00:00.000000000,2000
964,ANGLE FIRE 3/22/14,8.0,Campfire,35.597083000000005,-85.28823299999999,TN,Mar,0,2014
965,LAVA,1.0,Lightning,37.90444444,-120.0347222,CA,Aug,0,2003
966,SHEKLUKSHU,1000.0,Lightning,66.65,-157.3705,AK,Jul,10 days 00:00:00.000000000,1997
967,STEAMBOAT,300.0,Equipment Use,41.95,-109.184,WY,Sep,1 days 00:00:00.000000000,1994
968,NOT QUITE,6.0,Arson,35.7264,-94.5725,OK,Feb,0,2007
969,20223,20.0,Miscellaneous,34.88588333,-95.1776,OK,Feb,0,2009
970,WOODEN TOWER,280.0,Miscellaneous,31.09722222,-89.11944444,MS,Dec,3 days 00:00:00.000000000,2006
971,RL352,1.0,Miscellaneous,47.8808,-95.0131,MN,May,0,2005
972,FY2011-CLAYTON-004,1.0,Debris Burning,33.59865689,-84.25961965,GA,Feb,0,2011
973,2 LAZY 2,86.0,Powerline,44.6731,-111.4283,ID,Oct,0,2010
974,STRIKE,1.0,Children,43.1908,-100.8974,SD,Jun,0,2002
975,RL164,2.0,Arson,47.8692,-95.0075,MN,May,0,2008
976,KEITH,1.0,Miscellaneous,33.0667,-111.734,AZ,May,0,1992
977,CANYON,3.0,Campfire,35.53305556,-118.6663889,CA,Jun,0,2004
978,KEMMER,3.0,Arson,35.901167,-84.86251999999999,TN,Mar,0,2009
979,CAMP,1.0,Lightning,40.7166,-120.5511,CA,Jul,2 days 00:00:00.000000000,1994
980,HOTTLE FIRE,8.8,Equipment Use,34.5478,-97.0847,OK,Jul,0,2011
981,QUAKY HAVENS,4.0,Campfire,38.51472222,-111.7858333,UT,Oct,1 days 00:00:00.000000000,2001
982,MURDICK FIRE,18.0,Miscellaneous,36.95888889,-91.17027778,MO,Apr,0,2002
983,ROONEY HOLLOW,47.0,Debris Burning,37.66277778,-91.24444444,MO,Apr,0,2005
984,COSTILLO,5.0,Lightning,33.9675,-108.5511111,NM,Jun,0,2000
985,LITTLE BEAVER,120.0,Debris Burning,34.7292,-95.6906,OK,Jan,3 days 00:00:00.000000000,2015
986,"HWY 99 / CR 27, AL",15.0,Debris Burning,33.192499,-86.58730600000001,AL,Feb,0,2011
987,STATEHOUSE JR.,163.0,Lightning,34.45638889,-93.88416667,AR,Aug,0,2011
988,FY2012-MCDUFFIE-029,4.0,Arson,33.52121774,-82.43162485,GA,Mar,0,2012
989,FY2002-POLK-063,2.0,Arson,34.0873,-85.2105,GA,Dec,0,2001
990,BAKERSFIELD,5.0,Arson,30.7422,-94.7236,TX,Feb,0,2011
991,FY2011-WHEELER-066,2.4,Debris Burning,32.15945992,-82.64755719,GA,Mar,0,2011
992,DEERHORN,359.0,Arson,41.1693,-123.6962,CA,Sep,16 days 00:00:00.000000000,2008
993,FY2002-BARTOW-049,1.5,Miscellaneous,34.2586,-84.8195,GA,Nov,0,2001
994,DOG TOWN 1,3.0,Equipment Use,38.141261,-120.568469,CA,Jul,0,2001
995,FY2012-BEN HILL-032,1.43,Debris Burning,31.81723128,-83.25877196,GA,Mar,0,2012
996,SAWMILL,14233.0,Lightning,46.60194444,-113.7002778,MT,Jul,108 days 00:00:00.000000000,2007
997,GOOSE 2,20.0,Arson,30.267222,-89.96055600000001,LA,Jan,0,1998
998,JOHNSON,2.5,Debris Burning,41.78361,-76.59083000000001,PA,Mar,0,2014
999,LOST PRAIRIE NORTH,0.8,Missing/Undefined,48.09445,-114.81757,MT,Jun,1 days 00:00:00.000000000,1992
1000,DAM,4.0,Arson,33.3842,-110.4336,AZ,Apr,0,2005
1001,RAMER SELMER RD,2.0,Debris Burning,35.079317,-88.61075,TN,Oct,0,2015
1002,ABRAMS VIEWS,1.4,Missing/Undefined,35.6225,-83.94845,TN,Nov,0,2012
1003,HOEFER FIRE,3.0,Debris Burning,45.64472,-123.15333,OR,Oct,0,2014
1004,COPPER,32.0,Miscellaneous,31.4387,-110.0992,AZ,Apr,5 days 00:00:00.000000000,2002
1005,UNITY,6.0,Arson,34.8,-88.975,MS,Mar,0,1998
1006,FATHERS DAY,1000.0,Equipment Use,42.78406,-105.4509,WY,Jun,0,2012
1007,FY2002-FLOYD-016,91.0,Arson,34.1388,-85.397,GA,Oct,0,2001
1008,LIMEKILN,4.0,Debris Burning,47.1222,-109.3507,MT,Jun,1 days 00:00:00.000000000,1995
1009,JONES RD. 1,3.0,Fireworks,46.46054,-120.42109,WA,Jul,0,2010
1010,OREGON,280.0,Arson,39.547611,-121.53075,CA,Oct,0,1999
1011,SOUTH TRAIL II,2.0,Lightning,44.93888889,-118.3547222,OR,Aug,2 days 00:00:00.000000000,2000
1012,POST MOUNTAIN,1.0,Arson,34.79611111,-94.7425,OK,Mar,0,2013
1013,"OLD STAGE RD., AL",6.1,Arson,31.357559,-87.330332,AL,Jun,1 days 00:00:00.000000000,2011
1014,NORTH ROCK CREEK,6.0,Miscellaneous,47.7466,-106.2619,MT,Apr,0,2014
1015,FY2013-LANIER-009,4.0,Debris Burning,30.97490278,-83.00470833,GA,Feb,0,2013
1016,TIGER CREEK,28.0,Arson,30.98944444,-89.15333333,MS,Feb,2 days 00:00:00.000000000,2005
1017,30499,80.0,Arson,36.41578334,-94.77845001,OK,Mar,0,2009
1018,7069,1.0,Fireworks,31.33668333,-94.76383333,TX,Aug,0,2013
1019,SALVAGE,40.0,Debris Burning,26.38277778,-98.90555556,TX,Feb,0,2008
1020,R3,2.0,Debris Burning,47.8833,-95.0336,MN,Mar,0,1995
1021,SPARL PLUG,4.0,Arson,47.9472,-99.0819,ND,Mar,0,2015
1022,GONZALES,8.0,Equipment Use,33.27166667,-111.2266667,AZ,May,0,1995
1023,BECKY,40.0,Lightning,39.8833,-114.5342,NV,Aug,1 days 00:00:00.000000000,2000
1024,AIRPORT,0.75,Debris Burning,40.98361111,-122.685,CA,Jun,0,2007
1025,FY2014-RICHMOND-007,0.55,Arson,33.38305556,-82.06638889,GA,Oct,0,2013
1026,9.32014E+12,15.0,Debris Burning,34.91174364,-89.65836919,MS,Mar,0,2014
1027,EAST,1.0,Lightning,40.065,-121.005,CA,Aug,2 days 00:00:00.000000000,1996
1028,AXON ROAD,2.0,Children,37.8144711,-81.42351441,WV,Apr,0,1997
1029,LAIDLOW,3900.0,Lightning,44.43,-115.1466667,ID,Aug,15 days 00:00:00.000000000,1998
1030,FY2011-GLYNN-028,1.1,Lightning,31.14137676,-81.57004585,GA,May,0,2011
1031,RL522,2.5,Children,47.8716,-95.0106,MN,Apr,0,2003
1032,MILEPOST 7,4.0,Miscellaneous,32.27722222,-110.6361111,AZ,Jun,0,2013
1033,ALDERS,6.0,Lightning,33.34416667,-109.2227778,AZ,Jun,0,2002
1034,103,1.0,Arson,47.9803,-99.0025,ND,Apr,0,2007
1035,PRESTON,27.0,Lightning,47.93666667,-120.45333329999998,WA,Sep,3 days 00:00:00.000000000,1996
1036,FY2012-PEACH-016,7.8,Debris Burning,32.58388657,-83.80592661,GA,Mar,0,2012
1037,FATHER'S DAY 03,4.0,Lightning,28.79833333,-80.86,FL,Jun,4 days 00:00:00.000000000,2003
1038,EAST POINT,3.0,Lightning,47.9383333,-120.403611,WA,Jul,1 days 00:00:00.000000000,2010
1039,FY2001-TAYLOR-006,48.0,Debris Burning,32.5271,-84.0559,GA,Aug,0,2000
1040,STATE,75.0,Miscellaneous,32.91694444,-116.5686111,CA,Nov,0,2001
1041,OAK 38,1.0,Debris Burning,40.471567,-122.453333,CA,May,0,2013
1042,LENNY,7.0,Miscellaneous,46.3892,-100.5996,ND,Mar,0,1998
1043,FY2003-POLK-016,4.0,Arson,34.01671413,-85.18163283,GA,Aug,0,2002
1044,BOWL CREEK,0.7,Lightning,46.40333333,-115.4636111,ID,Aug,2 days 00:00:00.000000000,2000
1045,ISHKOTEN,4.7,Lightning,36.9378,-107.0648,NM,Jul,1 days 00:00:00.000000000,2012
1046,FISH LAKE,1.0,Lightning,48.86833333,-115.5683333,MT,Aug,39 days 00:00:00.000000000,2000
1047,FY2014-LONG-003,10.0,Debris Burning,31.70056111,-81.71305278,GA,Feb,0,2014
1048,1290,3.0,Miscellaneous,32.77155886,-89.80479509,MS,Sep,0,2015
1049,CHARLES,1.0,Missing/Undefined,33.599167,-117.258917,CA,Jun,0,2013
1050,FY2001-MUSCOGEE-003,1.94,Arson,32.5445,-84.8063,GA,Jul,0,2000
1051,MAUI,10.0,Lightning,34.46916667,-94.1375,AR,Nov,3 days 00:00:00.000000000,2005
1052,GREENER PASTURE  (06),45.0,Arson,27.9982,-81.2542,FL,Apr,0,2011
1053,FY2002-DECATUR-058,1.87,Debris Burning,30.796,-84.51299999999999,GA,Feb,0,2002
1054,FY2011-LONG-080,19.3,Arson,31.88301351,-81.88345182,GA,Mar,0,2011
1055,GOODE1,220.0,Debris Burning,36.7539,-96.7539,OK,Jan,0,2000
1056,FY2001-BLECKLEY-048,4.02,Railroad,32.4413,-83.4684,GA,Feb,0,2001
1057,101-4,2.0,Arson,47.4693,-124.0485,WA,Jul,1 days 00:00:00.000000000,1996
1058,SHILOH RD,3.0,Arson,35.41165,-84.823367,TN,Apr,0,2010
1059,OUTDOORSMAN FIRE,6.0,Missing/Undefined,36.364,-80.6545,NC,Mar,0,2011
1060,958,37.0,Powerline,44.9172,-120.4736,OR,Sep,1 days 00:00:00.000000000,2006
1061,UTAH HILL,54.0,Lightning,37.1383,-113.8211,UT,Jun,3 days 00:00:00.000000000,2005
1062,HENDERSON - 120,1.0,Debris Burning,31.69591667,-95.9632,TX,Apr,0,2009
1063,SONOMA,20.0,Lightning,40.8216,-117.671,NV,Jul,0,1994
1064,9290-SOUTH,1.9,Lightning,36.0333,-109.1507,AZ,Jul,0,1992
1065,CADDO,5.0,Miscellaneous,34.3617,-97.5805,OK,Mar,0,2006
1066,MARCELL,4.9,Miscellaneous,47.60916667,-93.67083333,MN,Apr,0,2007
1067,FY2002-EARLY-051,0.61,Railroad,31.2247,-85.0753,GA,Feb,0,2002
1068,STATE,4.0,Equipment Use,33.807739,-117.441819,CA,Jul,0,2004
1069,FILLY,7000.0,Lightning,45.48,-114.62166670000002,ID,Jul,93 days 00:00:00.000000000,2000
1070,BORDER PNF 04-02,72.0,Lightning,33.56833333,-109.045,NM,Jul,17 days 00:00:00.000000000,1997
1071,TONEY BUTTE,2229.0,Lightning,44.67278,-120.04139,OR,Jul,50 days 00:00:00.000000000,2014
1072,BATTLE,5.0,Lightning,40.6213,-117.2223,NV,Jul,2 days 00:00:00.000000000,2005
1073,1.61202E+13,4.0,Debris Burning,34.080294200000004,-89.54510738,MS,Feb,1 days 00:00:00.000000000,2015
1074,TIPTON,0.7,Miscellaneous,41.62211,-108.27488999999998,WY,Mar,0,2012
1075,"31197 HWY 431, AL",2.2,Miscellaneous,34.4727474,-86.3709475,AL,Feb,0,2011
1076,HOG RUN,3.0,Powerline,39.85261491,-80.79109914,WV,Nov,0,1999
1077,LONGROCK,3.0,Arson,41.0832,-123.6845,CA,Aug,0,2001
1078,GOOSE LAKE SUBSTATIO,1.0,Powerline,48.1515,-119.33283,WA,Jun,0,2011
1079,TOPAUM,10.0,Miscellaneous,35.0647,-98.5319,OK,Oct,0,2005
1080,REVEL,75.0,Smoking,35.21805556,-91.28305556,AR,Mar,0,2010
1081,UNKNOWN,1.0,Debris Burning,38.072,-103.4355,CO,Mar,0,2013
1082,EMIGRATION I,22.0,Lightning,42.36666667,-111.5716667,ID,Jul,6 days 00:00:00.000000000,2000
1083,192ND ROAD (61),6.0,Children,30.1092,-82.8858,FL,Mar,0,2013
1084,6,8.0,Debris Burning,37.49,-95.49,KS,Jan,0,2015
1085,LAKE POINT RD (32),5.0,Debris Burning,30.6317,-85.3962,FL,Mar,0,2015
1086,FIRST CANYON,3.0,Lightning,39.92527778,-110.835,UT,Aug,3 days 00:00:00.000000000,2006
1087,EMPTY,1.0,Children,46.98,-95.3708,MN,Apr,0,2014
1088,S.HUBBUTTE,64.0,Fireworks,42.4166,-114.4675,ID,Aug,1 days 00:00:00.000000000,1995
1089,STABLE,25.0,Equipment Use,39.3536,-119.7847,NV,Oct,1 days 00:00:00.000000000,2008
1090,POWERLINE ROW,2.0,Children,40.449917,-80.55647002,WV,Mar,0,1999
1091,MM-162,0.8,Miscellaneous,40.191931,-109.161924,UT,Jun,1 days 00:00:00.000000000,2014
1092,WILDHORSE #2,2.0,Equipment Use,34.2,-116.7783333,CA,Nov,0,1995
1093,18,1.0,Debris Burning,39.11,-96.87,KS,Mar,0,2015
1094,ELLIS,130.0,Debris Burning,32.81207,-89.68535,MS,Mar,0,1993
1095,BLUE RIDGE,2.5,Debris Burning,41.3725,-77.11888889,PA,Apr,0,2005
1096,LINDEN - 634,6.0,Powerline,32.42116667,-94.62066667,TX,Sep,0,2011
1097,FY2011-CANDLER-057,1.26,Debris Burning,32.35941283,-81.97288704,GA,Mar,0,2011
1098,FY2011-WORTH-055,1.2,Debris Burning,31.44218248,-83.98666472,GA,Feb,0,2011
1099,SE 16 AVE(01),2.5,Debris Burning,29.6375,-82.0966,FL,Jun,0,2012
1100,RL268,0.8,Arson,47.8794,-94.8947,MN,Apr,0,2006
1101,EASTLAND RD 8646,1.5,Campfire,35.890017,-85.24126,TN,Mar,0,2009
1102,RL 024,1.3,Children,47.8728,-94.9931,MN,Mar,0,2015
1103,14 TWO,1.0,Lightning,38.03694444,-120.0169444,CA,Sep,0,1999
1104,CUTTER,1.0,Arson,33.3501,-110.4673,AZ,Jun,0,1994
1105,CIPV MILL,3.0,Equipment Use,48.4011,-119.5089,WA,Jun,1 days 00:00:00.000000000,2006
1106,KEINTZ,2.0,Smoking,45.6069,-97.4407,SD,Apr,0,2002
1107,162ND ROAD (61),5.0,Miscellaneous,30.1568,-82.804,FL,Jan,0,2013
1108,ROSE #5,3.2,Arson,35.98833333,-92.325,AR,Jan,0,1997
1109,COALDALE,1.0,Debris Burning,37.3266757,-81.31807989,WV,Nov,0,1993
1110,NOON,15.0,Miscellaneous,48.8528,-99.7629,ND,Oct,0,2003
1111,ROSEBUD/CUSTER COMPLEX,1581.0,Missing/Undefined,45.95425,-104.99133,MT,Aug,3 days 00:00:00.000000000,1995
1112,FY2011-IRWIN-052,8.7,Debris Burning,31.50373941,-83.23751147,GA,Feb,0,2011
1113,CREEDS CROSSING,1.0,Campfire,37.14985,-82.70061,KY,Nov,0,2011
1114,1.41202E+13,17.0,Debris Burning,34.87247333,-88.31451312,MS,Jan,0,2015
1115,YOCUM,1.0,Miscellaneous,41.938056,-89.431944,IL,Mar,0,2011
1116,TWIN BUTTE,23.0,Miscellaneous,46.3989,-100.6362,ND,Apr,0,2000
1117,LIVINGSTON - 227,2.0,Powerline,31.2266,-94.70385,TX,Aug,0,2009
1118,POWERLINE,1.0,Lightning,35.8417,-113.3008,AZ,Jun,0,1999
1119,ROUTE 340 BY-PASS,7.0,Equipment Use,39.27526882,-77.83662966,WV,Nov,0,2001
1120,ZOAR RIDGE,2.0,Arson,38.6875,-82.59583333,OH,Mar,0,2003
1121,BLUE SPRIN,16.4,Lightning,34.1334,-110.2957,AZ,Aug,1 days 00:00:00.000000000,1996
1122,HEART BREAK (O6),30.0,Debris Burning,27.8668,-80.9995,FL,May,0,2010
1123,STERLING,118.0,Miscellaneous,34.16666667,-117.2327778,CA,Jun,3 days 00:00:00.000000000,2015
1124,RATTLESNAKE,806.0,Lightning,32.36,-110.81333329999998,AZ,Jun,5 days 00:00:00.000000000,2000
1125,CUMBERLAND,3.0,Missing/Undefined,41.628440000000005,-110.55797,WY,Jun,0,2012
1126,BEAR CREEK PNF,3.0,Lightning,37.52611111,-108.1038889,CO,Jul,0,1997
1127,IX,1.5,Children,48.2689,-109.998,MT,Jul,1 days 00:00:00.000000000,2012
1128,TRUEMAN #3,6.0,Arson,36.30416667,-78.4325,NC,Apr,0,2012
1129,CAMAS CRK,5.0,Debris Burning,42.0636,-116.1331,ID,Jul,0,2005
1130,GOLD BRICK FIRE,424.0,Arson,30.31,-89.97,LA,Mar,1 days 00:00:00.000000000,2008
1131,FY2014-EMANUEL-010,1.04,Children,32.75361111,-82.26861111,GA,Nov,0,2013
1132,BLACK,90.0,Missing/Undefined,39.0027778,-120.670278,CA,Sep,5 days 00:00:00.000000000,2010
1133,POPLAR FLATS FIRE,2.0,Miscellaneous,38.57,-82.60277778,OH,Oct,0,2008
1134,SCHOOL,156.0,Miscellaneous,42.0068,-117.7118,OR,Jul,1 days 00:00:00.000000000,2000
1135,EASTER,0.6,Debris Burning,45.91555556,-91.035,WI,Apr,0,2012
1136,ROUNGBOTTOM,152.0,Equipment Use,38.1430972,-81.69453507,WV,Apr,3 days 00:00:00.000000000,1999
1137,SOUTH SUMMIT,14.1,Arson,35.6544,-109.2003,AZ,May,2 days 00:00:00.000000000,2013
1138,BUCK LN,3.1,Debris Burning,45.34778,-88.14109,WI,Apr,0,2013
1139,30314,5.0,Arson,36.17027778,-94.75388889,OK,Jul,0,2012
1140,930,3.0,Debris Burning,37.79,-97.46,KS,Feb,0,2015
1141,FY2011-WILKINSON-017,2.59,Debris Burning,32.83757571,-83.24662059999999,GA,Feb,0,2011
1142,ENAS,2.0,Miscellaneous,33.1167,-111.7507,AZ,May,0,1992
1143,CORRAL,10.0,Lightning,40.67805556,-123.36305559999998,CA,Aug,3 days 00:00:00.000000000,2013
1144,FY2002-BRANTLEY-036,1.89,Debris Burning,31.1724,-82.0377,GA,Feb,0,2002
1145,ALTAPASS,18.0,Railroad,35.85833333,-82.03194444,NC,Mar,1 days 00:00:00.000000000,2013
1146,FY2002-CLAY-007,11.47,Debris Burning,31.6018,-84.9391,GA,Jan,0,2002
1147,CHEVRON,1.0,Powerline,35.6238,-119.7404,CA,Jun,0,2000
1148,SANTAN,1.0,Debris Burning,33.0467,-111.8857,AZ,Jul,0,1993
1149,TH1706,8.0,Arson,47.9889,-99.0087,ND,Apr,0,1996
1150,FRITZ SPUR,2109.0,Equipment Use,42.66612,-115.57565,ID,Aug,1 days 00:00:00.000000000,1999
1151,1.41201E+13,2.0,Debris Burning,34.65196888,-88.28780012,MS,Jan,0,2014
1152,POLE FIRE,1.1,Lightning,32.90885,-116.88223899999998,CA,Sep,0,1998
1153,FY2012-TROUP-005,1.0,Arson,33.09403472,-85.06388166,GA,Oct,0,2011
1154,GRINDER,1.0,Railroad,42.95904,-115.52945,ID,Jun,0,2001
1155,HORSESHOE,2.0,Miscellaneous,43.1664,-101.7092,SD,Mar,0,2012
1156,FOUR TRACK,7.0,Children,43.1542,-102.3528,SD,Oct,0,2006
1157,FAWN TRAIL,1.0,Debris Burning,35.41945,-82.80456666,NC,May,0,2014
1158,FY2001-LUMPKIN-030,0.6,Debris Burning,34.5326,-83.9499,GA,Jan,0,2001
1159,FIRST,5.0,Arson,37.52666667,-92.13333333,MO,Mar,0,1997
1160,FY2014-COLUMBIA-006,1.15,Debris Burning,33.38361389,-82.30070833,GA,Jan,0,2014
1161,FY2002-MILLER-037,1.56,Debris Burning,31.0875,-84.7343,GA,Feb,0,2002
1162,SYCAMORE,1.0,Debris Burning,35.9169,-81.60233333,NC,Nov,0,2013
1163,BOHANNON,59.0,Lightning,45.2062,-113.6745,ID,Jul,80 days 00:00:00.000000000,2007
1164,WHITE,1.5,Lightning,34.15194444,-108.5025,NM,Jul,0,2002
1165,LAKE ROAD,2.0,Lightning,30.263611,-89.955833,LA,Jul,0,2001
1166,201536,1.0,Miscellaneous,37.59,-95.23,KS,Oct,0,2015
1167,WARP,2.0,Lightning,40.2072,-108.337,CO,Sep,4 days 00:00:00.000000000,2002
1168,FIRST AVENUE (11),1.0,Arson,26.2308,-81.7021,FL,Jun,0,2011
1169,WW SOUTH,9.0,Miscellaneous,43.84136,-116.81721,ID,Jun,0,1999
1170,OTA 23,14.1,Lightning,43.24414,-116.15713999999998,ID,Aug,0,2007
1171,CASWELL,2.5,Debris Burning,46.98333364,-67.81666657,ME,May,0,1993
1172,CLA20330809,2.0,Arson,33.94279,-93.22009,AR,Jun,0,2014
1173,KRAMER,2.5,Debris Burning,44.674,-97.495,SD,May,0,2013
1174,ANGUS,414.0,Arson,44.8011,-101.9527,SD,Sep,0,2012
1175,WATTS,1.5,Lightning,32.4317,-104.3508,NM,Apr,0,2009
1176,COYOTE 1,490.0,Lightning,41.591,-118.2627,NV,Sep,1 days 00:00:00.000000000,1995
1177,BIG CREEK WF,2.0,Miscellaneous,36.0797,-92.4719,AR,Feb,1 days 00:00:00.000000000,2009
1178,SALT CREEK MARSH,580.0,Missing/Undefined,38.019444,-93.783889,MO,Feb,7 days 00:00:00.000000000,2006
1179,ROAD 10 HALF,0.9,Fireworks,44.0083,-107.897103,WY,Jul,0,2014
1180,RAILROAD,80.0,Debris Burning,36.7214,-96.0783,OK,Mar,0,2006
1181,CRATER,237.0,Powerline,43.17758,-115.84269,ID,May,1 days 00:00:00.000000000,2013
1182,NEWELL PRONG,16.0,Lightning,44.0058,-105.1292,WY,Aug,2 days 00:00:00.000000000,2015
1183,MITCHELL CREEK,6.0,Debris Burning,41.91206,-77.06578,PA,Apr,0,2015
1184,CROW CREEK,108.0,Miscellaneous,47.04444444,-121.1875,WA,Aug,1 days 00:00:00.000000000,2007
1185,BENNETT CANYON,1.0,Lightning,43.51333333,-103.9433333,SD,Jul,0,2000
1186,WEST MILFORD,4.0,Debris Burning,39.20373299,-80.41222925,WV,Mar,0,1999
1187,SHANG,1.2,Children,43.0092,-102.5569,SD,Jul,0,2012
1188,HILLS,5.0,Smoking,45.318000000000005,-107.3812,MT,Apr,0,1996
1189,BUSH,2.0,Miscellaneous,33.62194444,-111.5652778,AZ,Jul,1 days 00:00:00.000000000,2009
1190,CAVERN,3.0,Arson,38.0666,-120.451,CA,Jul,0,1994
1191,MOORE,35.0,Lightning,41.1181,-114.7964,NV,Jul,1 days 00:00:00.000000000,2006
1192,EDDYVILLE,2.0,Debris Burning,37.50472222,-88.5875,IL,Feb,0,2004
1193,158 BLUE SKY,1.2,Fireworks,42.8994,-108.7981,WY,Jul,0,2015
1194,KING,0.8,Arson,33.3503,-110.4567,AZ,Jul,0,2005
1195,TMCOMPLEX2,660.0,Miscellaneous,48.8417,-99.9921,ND,Apr,0,1999
1196,FLAT ROCK,25.0,Miscellaneous,33.08531389,-98.53645833,TX,Nov,0,2010
1197,BFE 1,10.0,Arson,36.933,-96.7055,OK,Jan,0,2006
1198,BUCK,10.0,Arson,36.95444444,-92.1125,MO,Mar,0,2009
1199,SOUTH MARVINE,326.0,Lightning,38.61722222,-111.6252778,UT,Jul,28 days 00:00:00.000000000,2003
1200,BLUE MTN,436.8,Lightning,40.9666,-118.0843,NV,Aug,3 days 00:00:00.000000000,2000
1201,AIRPORT,2.0,Miscellaneous,33.93333333,-82.1,SC,Feb,1 days 00:00:00.000000000,2002
1202,LOWER EDNA,20.0,Debris Burning,48.65361111,-114.9130556,MT,Apr,0,2013
1203,7024,2.0,Debris Burning,31.7957,-95.5217,TX,Feb,0,2015
1204,3 BALE,1.0,Arson,47.99,-99.061,ND,Aug,0,2013
1205,BUCK LAKE,1.0,Miscellaneous,29.105,-81.62,FL,Mar,2 days 00:00:00.000000000,1999
1206,PINE RIDGE,3.3,Lightning,43.785,-120.7139,OR,Jul,2 days 00:00:00.000000000,2009
1207,BEAUTY HILL 2,2.0,Debris Burning,35.28635,-88.538383,TN,Oct,0,2011
1208,FY2001-MILLER-022,1.02,Debris Burning,31.1903,-84.5752,GA,Jan,0,2001
1209,FY2013-WAYNE-025,102.1,Debris Burning,31.40023889,-81.92547222,GA,Feb,0,2013
1210,MULTIPLE START,74.0,Equipment Use,32.4828,-103.1247,NM,May,0,2011
1211,PINEGROVE 1,1.0,Arson,35.02527778,-111.4625,AZ,May,3 days 00:00:00.000000000,2013
1212,CASTLE,95.0,Lightning,33.525,-111.1833333,AZ,Jul,2 days 00:00:00.000000000,2002
1213,LOST,2.0,Lightning,41.43611111,-121.7255556,CA,Jul,0,2008
1214,RT. 94,95.0,Debris Burning,38.14158913,-81.65424904,WV,Mar,0,1995
1215,1201 WINAWAY #2,5.0,Arson,46.42753,-120.36587,WA,Jun,1 days 00:00:00.000000000,2012
1216,COAL 2,10.6,Miscellaneous,40.67916667,-104.5066667,CO,Mar,0,2012
1217,COAL,15.0,Miscellaneous,38.258889,-120.881661,CA,Aug,0,2005
1218,J & M FIRE,3.0,Debris Burning,33.0325333,-96.1112833,TX,Feb,0,2012
1219,129895-02810-10252015-1607,1.0,Debris Burning,38.150487,-91.300421,MO,Oct,0,2015
1220,DEE'S FIRE,1.0,Equipment Use,41.009997,-111.701684,UT,Jul,2 days 00:00:00.000000000,2011
1221,LAUREL LANE FIRE,1.0,Children,35.83333333,-77.48833333,NC,May,0,2010
1222,CEDAR VALLEY,1.0,Arson,35.83891666,-81.47545,NC,Sep,1 days 00:00:00.000000000,2010
1223,EUCALYPTUS,5.0,Arson,33.89666667,-116.7783333,CA,Jun,0,1996
1224,CEMETERY,20.0,Miscellaneous,29.716,-93.9,TX,Oct,1 days 00:00:00.000000000,1993
1225,FY2002-DOOLY-029,0.64,Debris Burning,32.0472,-83.9551,GA,Mar,0,2002
1226,FY2015-SCHLEY-006,6.35,Debris Burning,32.24567778,-84.36843611,GA,Apr,0,2015
1227,LICK BRANCH,3.0,Campfire,37.73252106,-83.04263306,KY,Mar,0,2013
1228,FY2013-HARALSON-041,2.0,Debris Burning,33.87388889,-85.23694444,GA,Nov,0,2012
1229,FY2016-MARION-003,2.77,Arson,32.46204167,-84.50299722,GA,Jul,0,2015
1230,PITCHING MACHINE FIRE,5.0,Miscellaneous,35.27583333,-80.25366666,NC,Mar,0,2010
1231,HAYFIELD  (47),1.0,Lightning,27.4556,-80.8229,FL,May,0,2015
1232,OLD FILSON,1.0,Lightning,41.56777778,-122.03555559999998,CA,Aug,1 days 00:00:00.000000000,1999
1233,LINDEN - 53,1.0,Arson,33.56861111,-95.08527778,TX,Mar,0,2011
1234,BLUE MOUNTAIN,2.2,Lightning,37.20944444,-106.8136111,CO,Aug,2 days 00:00:00.000000000,2009
1235,LAKE,5.0,Debris Burning,35.614794,-106.73519,NM,Mar,3 days 00:00:00.000000000,2012
1236,COON HOLLOW,0.7,Miscellaneous,39.4875,-79.01944444,MD,Feb,0,2011
1237,SICKLE,325.0,Equipment Use,34.7278,-95.7292,OK,Jul,0,2006
1238,25 RD #2,1.0,Miscellaneous,39.1639,-108.5673,CO,Jul,0,1998
1239,FY2002-WHITFIELD-031,0.96,Debris Burning,34.8758,-85.199,GA,Feb,0,2002
1240,EC20079,3.0,Arson,34.8258,-95.0555,OK,Jan,0,2006
1241,WOODY'S,1.0,Missing/Undefined,48.22768,-114.16318,MT,Mar,0,1992
1242,20144,80.0,Arson,35.07223334,-95.3831,OK,May,0,2010
1243,FY2002-HALL-038,14.16,Arson,34.1384,-83.9099,GA,Feb,0,2002
1244,MCBEE,2389.0,Lightning,46.2369,-119.4819,WA,Jul,2 days 00:00:00.000000000,2007
1245,FAIRPLAINS SHINN ROAD,2.0,Debris Burning,38.76427977,-81.70057365,WV,Apr,0,2014
1246,PORTER,3.0,Miscellaneous,35.072069,-120.286569,CA,Aug,1 days 00:00:00.000000000,2002
1247,A1306002,12.0,Debris Burning,42.1186,-96.3142,NE,Apr,0,2006
1248,SHERWOOD LOOP FIRE,1.0,Debris Burning,47.8779,-117.9655,WA,May,1 days 00:00:00.000000000,2006
1249,STARR,1.0,Arson,35.7631,-94.6136,OK,Mar,0,2005
1250,FLAT SPGS,1.0,Lightning,42.6499,-115.6176,ID,Jun,0,1992
1251,SOUTHFORK,6.3,Debris Burning,40.5675,-115.6267,NV,Aug,0,2012
1252,CABIN CREEK,6.0,Lightning,45.18916667,-114.8552778,ID,Aug,2 days 00:00:00.000000000,1996
1253,FY2002-EARLY-002,0.92,Debris Burning,31.3275,-84.9163,GA,Aug,0,2001
1254,DEAD COW FIRE,5.5,Debris Burning,35.972783,-89.31955,TN,Sep,0,2010
1255,MARSHALL #2,5.0,Arson,41.0793,-123.687,CA,Aug,0,2007
1256,222,1.0,Miscellaneous,33.15156926,-89.50715475,MS,Aug,0,2015
1257,BAYS MT,20.0,Debris Burning,35.9083,-83.784083,TN,Apr,0,2011
1258,"SUGARCAMP, HUFF CREEK",210.0,Equipment Use,37.73715671,-81.75926321,WV,Nov,1 days 00:00:00.000000000,2015
1259,LIVINGSTON - 192,3.0,Campfire,30.70035,-93.78556667,TX,Mar,0,2011
1260,SLOSSER RD,3.0,Miscellaneous,44.4375,-83.77083333,MI,Apr,0,2008
1261,ROGER'S PASTURE,1498.0,Powerline,33.2168,-105.5172,NM,Jun,9 days 00:00:00.000000000,2008
1262,GLOW STICK(11),6.2,Lightning,26.3465,-81.5534,FL,May,1 days 00:00:00.000000000,2011
1263,MILLIGAN,58.0,Miscellaneous,34.731,-98.5822,OK,Dec,0,2002
1264,RL 240,15.0,Children,47.8686,-94.9997,MN,Apr,0,2015
1265,LAST CHANCE RIDGE,82.7,Lightning,33.465,-85.86888889,AL,Aug,4 days 00:00:00.000000000,2002
1266,KARNS #2,2.0,Miscellaneous,35.6281,-98.2131,OK,Nov,0,2005
1267,PHILLPS,1.5,Debris Burning,44.86666533,-70.36666997,ME,May,0,1992
1268,HONEY LOCUST,8.6,Debris Burning,34.3733,-97.5886,OK,Aug,0,2008
1269,20473,3.0,Arson,35.11123333,-94.93926665,OK,Nov,0,2009
1270,SPRING,40.0,Miscellaneous,32.0661,-104.4908,NM,Jan,0,2006
1271,FY2000-PULASKI-052,2.15,Debris Burning,32.287,-83.4492,GA,Feb,0,2000
1272,GRAYPOINT,34.0,Lightning,36.9516,-113.8075,AZ,Aug,4 days 00:00:00.000000000,1999
1273,HWY 4,1.5,Miscellaneous,46.1938,-123.1027,WA,Jul,20 days 00:00:00.000000000,2014
1274,J-O,1.0,Debris Burning,34.90002,-106.68218,NM,Mar,3 days 00:00:00.000000000,2011
1275,HERRON RIV,6238.2,Lightning,63.5347,-152.1973,AK,Jun,50 days 00:00:00.000000000,2001
1276,COOKS,18.0,Miscellaneous,36.75055556,-119.1005556,CA,Sep,3 days 00:00:00.000000000,1999
1277,COAL CR,15.0,Debris Burning,47.3999,-118.5344,WA,Mar,0,1994
1278,FISHER VALLEY ROAD FIRE,10.0,Arson,36.58915,-82.973867,TN,Apr,0,2015
1279,BORDER,3.0,Lightning,33.6525,-109.0,NM,Aug,1 days 00:00:00.000000000,2004
1280,COTTONWOOD,30.0,Lightning,41.54666667,-117.585,NV,Aug,1 days 00:00:00.000000000,1996
1281,INDEPENDENCE,1.0,Fireworks,47.975,-102.5767,ND,Jul,0,2011
1282,229,1.0,Fireworks,47.9792,-99.0325,ND,Jul,0,2008
1283,9.2014E+11,15.0,Campfire,34.98290233,-89.32709563,MS,Jan,0,2014
1284,BOX,2.0,Miscellaneous,32.49544,-104.80636,NM,Mar,0,1999
1285,NORTH END,25.0,Campfire,34.65,-80.25,SC,Mar,1 days 00:00:00.000000000,2003
1286,MORRISON,1.25,Lightning,33.96055556,-109.0877778,AZ,Jul,1 days 00:00:00.000000000,2007
1287,GROB LAKE,24.5,Miscellaneous,48.92444444,-115.1236111,MT,Jul,0,2006
1288,SANDOVAL,3.0,Lightning,36.42972222,-106.24944440000002,NM,May,1 days 00:00:00.000000000,2003
1289,9.2014E+11,18.0,Debris Burning,34.73511155,-89.15055154,MS,Mar,0,2014
1290,BARREL,2.0,Debris Burning,44.3625,-85.78333333,MI,Mar,0,1999
1291,FY2002-TAYLOR-035,1.46,Smoking,32.5615,-84.1573,GA,Mar,0,2002
1292,LIVINGSTON - 732,34.0,Children,30.08328333,-95.20475,TX,Aug,0,2011
1293,SHAGGY,2.5,Lightning,35.62138889,-105.80055559999998,NM,Jun,1 days 00:00:00.000000000,2001
1294,30118,20.0,Arson,35.77730001,-95.08758334,OK,Mar,0,2011
1295,TRAVIS CREEK,1.5,Lightning,46.49666667,-112.1366667,MT,Aug,1 days 00:00:00.000000000,2003
1296,GANNETT 41,16.8,Lightning,25.85798,-81.11265,FL,Aug,0,1993
1297,SET BOTH SIDES,1.0,Arson,35.21558333,-82.36336666,NC,Nov,0,2014
1298,KERLEY RD,3.0,Debris Burning,35.675533,-84.9947,TN,Nov,1 days 00:00:00.000000000,2007
1299,SPUNKY,1.0,Miscellaneous,34.58,-118.3688889,CA,Apr,0,2007
1300,57 - SOYBEAN DR FIRE-0329,3.0,Debris Burning,30.6236,-86.9354,FL,Feb,0,2011
1301,ROBINSON,5.0,Lightning,37.24361111,-106.9419444,CO,Sep,1 days 00:00:00.000000000,2012
1302,OAK MTN.,40.0,Arson,35.6883,-94.5183,OK,Mar,0,2005
1303,ORDERVILLE,40.0,Debris Burning,37.29666,-112.91598,UT,Oct,3 days 00:00:00.000000000,1992
1304,FY2013-BAKER-006,2.0,Debris Burning,31.17704444,-84.524625,GA,Dec,0,2012
1305,FY2015-MITCHELL-001,29.53,Lightning,31.10275,-84.2244,GA,Jul,0,2014
1306,PERU,1500.0,Lightning,40.428,-118.1793,NV,Aug,4 days 00:00:00.000000000,2001
1307,9.92014E+12,50.0,Debris Burning,32.66062629,-89.27136876,MS,Mar,0,2014
1308,EDWARDS ROAD,1.0,Missing/Undefined,34.9104,-80.41983333,NC,Feb,0,2011
1309,BEAR,1.0,Lightning,35.405,-111.6222222,AZ,Jun,0,2004
1310,WANNA,7505.0,Children,43.2797,-102.8018,SD,Aug,0,2002
1311,M.JOESEPH,0.8,Fireworks,44.1033,-99.3876,SD,Jul,0,1996
1312,BOND,1.0,Campfire,33.3167,-110.4573,AZ,Apr,0,1997
1313,COAL CITY RAOD,1.0,Arson,37.63034986,-81.24026403,WV,Mar,0,1999
1314,CHURCH HILL,15.0,Fireworks,35.610671999999994,-106.006403,NM,Jul,0,2009
1315,INDIAN WELL,30.0,Lightning,40.5422,-115.8236,NV,Jul,2 days 00:00:00.000000000,2007
1316,FY2011-COLUMBIA-017,3.14,Debris Burning,33.61415927,-82.40352883,GA,Jan,0,2011
1317,RL423,180.0,Debris Burning,47.9916,-95.5086,MN,Apr,0,1999
1318,DRUMSPRING,1.5,Debris Burning,35.9167,-110.6507,AZ,Jun,0,1999
1319,EAST THOMPSON PEAK,18.0,Lightning,47.16777778,-114.9022222,MT,Aug,4 days 00:00:00.000000000,2000
1320,MEREDITH,1400.0,Lightning,33.4501,-104.2005,NM,Jun,0,1993
1321,LINDEN - 700,1.0,Powerline,32.8375,-94.62416667,TX,Oct,0,2011
1322,10420,25.0,Arson,33.95683333,-94.87466666,OK,Aug,1 days 00:00:00.000000000,2011
1323,MCCAULEY,7.0,Equipment Use,37.74694444,-119.9916667,CA,Jun,0,2001
1324,BULL RUN,2.0,Miscellaneous,37.150392,-80.098778,VA,Mar,0,2002
1325,F,3.0,Lightning,42.55166667,-121.575,OR,Jul,0,1994
1326,WOOD TICK,1.0,Arson,48.8417,-99.8962,ND,May,0,2006
1327,WEST KILI,1.5,Arson,43.1889,-102.3357,SD,Apr,0,2005
1328,DEER STAND FIRE,18.0,Arson,34.8254,-79.2182,NC,Apr,0,2010
1329,DOF#175,30.0,Equipment Use,26.2438,-81.4134,FL,Mar,0,2001
1330,70,1.0,Debris Burning,31.52233836,-88.51585874,MS,Jul,0,2015
1331,430,1.0,Lightning,41.50722222,-120.9766667,CA,Jul,1 days 00:00:00.000000000,2003
1332,SWITCHBACK,0.8,Missing/Undefined,40.6192,-109.4761,UT,Jul,0,2012
1333,BANJO BRANCH,1.0,Arson,35.248217,-87.78145,TN,Jun,0,2010
1334,FERN (40),45.0,Debris Burning,30.5934,-83.3359,FL,Jan,0,2012
1335,FARR,410.8,Miscellaneous,40.0255,-117.5948,NV,Sep,1 days 00:00:00.000000000,2007
1336,SOUTH SPRING,4.1,Lightning,35.04061,-108.77846,NM,Jul,0,2009
1337,SCHOOL,2.0,Debris Burning,46.8499,-92.5002,MN,Apr,0,1997
1338,JETPORT1N,3.0,Miscellaneous,25.92269,-80.83346,FL,May,1 days 00:00:00.000000000,2000
1339,BOURLAND,30.0,Miscellaneous,38.12277778,-119.8675,CA,Jun,97 days 00:00:00.000000000,1993
1340,BEAVER,2.0,Lightning,44.71027778,-104.3633333,WY,Jul,1 days 00:00:00.000000000,2003
1341,HWY 155 MM 73,1420.0,Powerline,48.3394,-119.4231,WA,Jul,5 days 00:00:00.000000000,2008
1342,BTU DOE 2,10857.0,Lightning,39.73488,-121.7361,CA,Aug,13 days 00:00:00.000000000,1999
1343,RICHMOND RIDGE 2,5.0,Lightning,47.31777778,-113.5083333,MT,Aug,84 days 00:00:00.000000000,2015
1344,FY2013-BURKE-037,29.71,Debris Burning,32.99805556,-81.75194444,GA,Feb,0,2013
1345,CLE10827143,15.0,Arson,35.56069,-92.01299,AR,Mar,0,2014
1346,OWL BRANCH # 3,3.3,Arson,35.4892,-83.3403,NC,Apr,2 days 00:00:00.000000000,2010
1347,LISMAN,0.7,Arson,38.61805556,-82.69944444,OH,Mar,0,2012
1348,RAILROAD FIRE,1.0,Equipment Use,30.43333333,-88.41666667,MS,Sep,0,2005
1349,CEDAR,5.0,Smoking,44.0767,-99.6346,SD,Oct,0,1998
1350,BERGER,3.0,Campfire,42.4522,-114.5628,ID,Jul,0,2008
1351,POWERLINE 8,14.75,Equipment Use,29.13,-81.84222222,FL,Mar,11 days 00:00:00.000000000,2011
1352,BLUNDELL,3.0,Lightning,38.4636,-112.8744,UT,Aug,1 days 00:00:00.000000000,1998
1353,COPPER,250.0,Lightning,41.09333333,-122.62166670000002,CA,Sep,5 days 00:00:00.000000000,1994
1354,MARK,3.0,Arson,46.9661,-95.3917,MN,May,0,2002
1355,CHEROKEE,10.0,Miscellaneous,39.576231,-121.549289,CA,Aug,0,2000
1356,CESSAMY,0.8,Debris Burning,38.294494,-77.470072,VA,Feb,0,2009
1357,3MILE HILL,4.0,Miscellaneous,44.2332,-117.151,OR,Sep,1 days 00:00:00.000000000,1992
1358,BORREGO,0.75,Lightning,35.644722200000004,-106.591944,NM,Jul,15 days 00:00:00.000000000,2010
1359,TURNER GULCH,1.0,Missing/Undefined,43.51734,-116.04444,ID,Aug,1 days 00:00:00.000000000,2010
1360,CHALLENGER,15.0,Equipment Use,34.15,-112.134,AZ,Jul,0,1994
1361,5,15.0,Arson,38.73,-95.4,KS,Jan,0,2015
1362,EAGLE UNIT II,50.0,Arson,45.6308,-100.5892,SD,Jun,1 days 00:00:00.000000000,2010
1363,FY2012-SUMTER-042,0.59,Debris Burning,32.15233412,-84.38081184,GA,Mar,0,2012
1364,20051,80.0,Arson,35.31888889,-95.41583333,OK,Mar,0,2012
1365,FY2000-DECATUR-085,1.8,Debris Burning,30.8989,-84.4339,GA,Feb,0,2000
1366,HORSE.,6.0,Debris Burning,38.56805556,-120.2847222,CA,Nov,5 days 00:00:00.000000000,2002
1367,MADERA,3.0,Missing/Undefined,36.909389,-120.019399,CA,Aug,0,2015
1368,PLAYGROUND,2.5,Arson,33.3003,-110.4182,AZ,Jun,0,2001
1369,HILL,1.0,Debris Burning,44.0772,-99.6168,SD,Apr,0,1993
1370,COLFCOURSE,1.0,Children,43.0139,-102.5491,SD,Sep,0,2001
